{"type": "FeatureCollection", "features": [{"geometry": {"type": "Point", "coordinates": [13.4230508804, 52.4912185669]}, "type": "Feature", "properties": {"name": "Bolu Grill"}}, {"geometry": {"type": "Point", "coordinates": [9.88129138947, 48.227481842]}, "type": "Feature", "properties": {"name": "Istanbul"}}, {"geometry": {"type": "Point", "coordinates": [7.94709920883, 47.5542831421]}, "type": "Feature", "properties": {"name": "Birgin"}}, {"geometry": {"type": "Point", "coordinates": [12.923874855, 50.8288154602]}, "type": "Feature", "properties": {"name": "Reiti-Doener"}}, {"geometry": {"type": "Point", "coordinates": [9.73147392273, 52.4338760376]}, "type": "Feature", "properties": {"name": "\u00d6z Urfa"}}, {"geometry": {"type": "Point", "coordinates": [13.4186992645, 52.5004730225]}, "type": "Feature", "properties": {"name": "Lezzet Grill"}}, {"geometry": {"type": "Point", "coordinates": [13.4302968979, 52.4955749512]}, "type": "Feature", "properties": {"name": "Nachtigall-Grill"}}, {"geometry": {"type": "Point", "coordinates": [13.4532289505, 52.4819717407]}, "type": "Feature", "properties": {"name": "Emek-Grill"}}, {"geometry": {"type": "Point", "coordinates": [13.418923378, 52.5007896423]}, "type": "Feature", "properties": {"name": "Cukurova Imbiss"}}, {"geometry": {"type": "Point", "coordinates": [9.17168045044, 48.7720565796]}, "type": "Feature", "properties": {"name": "MAG Istanbul"}}, {"geometry": {"type": "Point", "coordinates": [11.4278049469, 48.7645606995]}, "type": "Feature", "properties": {"name": "Arena Imbiss"}}, {"geometry": {"type": "Point", "coordinates": [11.4240961075, 48.7641487122]}, "type": "Feature", "properties": {"name": "Terzi"}}, {"geometry": {"type": "Point", "coordinates": [13.4526472092, 52.5187034607]}, "type": "Feature", "properties": {"name": "Am Rathaus"}}, {"geometry": {"type": "Point", "coordinates": [13.4277420044, 52.4993896484]}, "type": "Feature", "properties": {"name": "Hataz Sofrasi"}}, {"geometry": {"type": "Point", "coordinates": [10.9140272141, 50.6849327087]}, "type": "Feature", "properties": {"name": "Ali Baba"}}, {"geometry": {"type": "Point", "coordinates": [7.85385084152, 47.993560791]}, "type": "Feature", "properties": {"name": "Kervan Saray"}}, {"geometry": {"type": "Point", "coordinates": [7.8379240036, 48.0011138916]}, "type": "Feature", "properties": {"name": "St\u00fchlinger-Imbiss"}}, {"geometry": {"type": "Point", "coordinates": [13.4190483093, 52.5009651184]}, "type": "Feature", "properties": {"name": "Hasir"}}, {"geometry": {"type": "Point", "coordinates": [14.0617542267, 52.3614425659]}, "type": "Feature", "properties": {"name": "Bosporus"}}, {"geometry": {"type": "Point", "coordinates": [9.17754936218, 48.7732086182]}, "type": "Feature", "properties": {"name": "Dilan"}}, {"geometry": {"type": "Point", "coordinates": [7.62595701218, 51.9590988159]}, "type": "Feature", "properties": {"name": "K\u00f6nigsgrill"}}, {"geometry": {"type": "Point", "coordinates": [11.428981781, 48.765712738]}, "type": "Feature", "properties": {"name": "Kebap Haus"}}, {"geometry": {"type": "Point", "coordinates": [13.3048152924, 52.5147628784]}, "type": "Feature", "properties": {"name": "Bosporus D\u00f6ner"}}, {"geometry": {"type": "Point", "coordinates": [13.4990434647, 52.5053329468]}, "type": "Feature", "properties": {"name": "Gaziantep G\u00fcl Imbiss"}}, {"geometry": {"type": "Point", "coordinates": [14.0799455643, 52.3423042297]}, "type": "Feature", "properties": {"name": "Layal-Imbiss"}}, {"geometry": {"type": "Point", "coordinates": [13.445479393, 52.4992446899]}, "type": "Feature", "properties": {"name": "T\u00fcrkiyem Imbiss"}}, {"geometry": {"type": "Point", "coordinates": [13.434548378, 52.496509552]}, "type": "Feature", "properties": {"name": "Anadolu Grill"}}, {"geometry": {"type": "Point", "coordinates": [13.4246454239, 52.5437431335]}, "type": "Feature", "properties": {"name": "Oriental Chickenhaus"}}, {"geometry": {"type": "Point", "coordinates": [7.45692586899, 53.2532615662]}, "type": "Feature", "properties": {"name": "Botan (2)"}}, {"geometry": {"type": "Point", "coordinates": [9.05814361572, 48.5195236206]}, "type": "Feature", "properties": {"name": "Kalender"}}, {"geometry": {"type": "Point", "coordinates": [12.127161026, 50.1689758301]}, "type": "Feature", "properties": {"name": "Memos Imbiss I"}}, {"geometry": {"type": "Point", "coordinates": [12.0030679703, 50.0374031067]}, "type": "Feature", "properties": {"name": "Memos Imbiss II"}}, {"geometry": {"type": "Point", "coordinates": [10.0271339417, 53.5703430176]}, "type": "Feature", "properties": {"name": "Kismet"}}, {"geometry": {"type": "Point", "coordinates": [13.3897094727, 52.5066833496]}, "type": "Feature", "properties": {"name": "La Rita"}}, {"geometry": {"type": "Point", "coordinates": [10.0680398941, 53.5724258423]}, "type": "Feature", "properties": {"name": "A la Turca"}}, {"geometry": {"type": "Point", "coordinates": [13.4099187851, 52.5412902832]}, "type": "Feature", "properties": {"name": "Mets Kebab 22"}}, {"geometry": {"type": "Point", "coordinates": [13.4211101532, 52.4980201721]}, "type": "Feature", "properties": {"name": "Izgara Gesitler"}}, {"geometry": {"type": "Point", "coordinates": [13.3976898193, 52.534866333]}, "type": "Feature", "properties": {"name": "G\u00fcl Imbiss"}}, {"geometry": {"type": "Point", "coordinates": [13.4209699631, 52.4950942993]}, "type": "Feature", "properties": {"name": "Euro Can Imbiss"}}, {"geometry": {"type": "Point", "coordinates": [13.410777092, 52.5215415955]}, "type": "Feature", "properties": {"name": "Bistro am Alex"}}, {"geometry": {"type": "Point", "coordinates": [13.3349113464, 52.4210205078]}, "type": "Feature", "properties": {"name": "Burg Imbiss"}}, {"geometry": {"type": "Point", "coordinates": [13.40280056, 52.5278663635]}, "type": "Feature", "properties": {"name": "Kebup"}}, {"geometry": {"type": "Point", "coordinates": [13.4116411209, 52.5403900146]}, "type": "Feature", "properties": {"name": "Kaplan D\u00f6ner"}}, {"geometry": {"type": "Point", "coordinates": [13.4159183502, 52.5365486145]}, "type": "Feature", "properties": {"name": "abdally"}}, {"geometry": {"type": "Point", "coordinates": [7.13425588608, 50.9914855957]}, "type": "Feature", "properties": {"name": "Pizza Galaxy"}}, {"geometry": {"type": "Point", "coordinates": [10.9116096497, 50.6831855774]}, "type": "Feature", "properties": {"name": "Pizza und Doener"}}, {"geometry": {"type": "Point", "coordinates": [6.26091098785, 51.4370918274]}, "type": "Feature", "properties": {"name": "YILDIZ"}}, {"geometry": {"type": "Point", "coordinates": [9.96391391754, 53.5625190735]}, "type": "Feature", "properties": {"name": "BolceKepce"}}, {"geometry": {"type": "Point", "coordinates": [9.88129138947, 48.227481842]}, "type": "Feature", "properties": {"name": "Ali Baba"}}, {"geometry": {"type": "Point", "coordinates": [8.92054653168, 50.1331291199]}, "type": "Feature", "properties": {"name": "klein asien"}}, {"geometry": {"type": "Point", "coordinates": [8.91512870789, 50.1354064941]}, "type": "Feature", "properties": {"name": "antalya"}}, {"geometry": {"type": "Point", "coordinates": [8.13823032379, 51.5564575195]}, "type": "Feature", "properties": {"name": "Imbiss am Overweg"}}, {"geometry": {"type": "Point", "coordinates": [6.48165893555, 50.8031463623]}, "type": "Feature", "properties": {"name": "D\u00f6ner Palast"}}, {"geometry": {"type": "Point", "coordinates": [7.61840200424, 47.5934257507]}, "type": "Feature", "properties": {"name": "D\u00f6ner am Bahnhof"}}, {"geometry": {"type": "Point", "coordinates": [9.96452617645, 53.567817688]}, "type": "Feature", "properties": {"name": "On\u00fcr"}}, {"geometry": {"type": "Point", "coordinates": [8.81900501251, 49.8806114197]}, "type": "Feature", "properties": {"name": "H\u00e4nchen Willi"}}, {"geometry": {"type": "Point", "coordinates": [9.65540885925, 48.7052154541]}, "type": "Feature", "properties": {"name": "\u00d6zay"}}, {"geometry": {"type": "Point", "coordinates": [7.79279613495, 50.4750442505]}, "type": "Feature", "properties": {"name": "Doenerladen"}}, {"geometry": {"type": "Point", "coordinates": [8.66008377075, 49.8708152771]}, "type": "Feature", "properties": {"name": "Metin Doener"}}, {"geometry": {"type": "Point", "coordinates": [9.92606639862, 53.5553817749]}, "type": "Feature", "properties": {"name": "Sphinx Imbis"}}, {"geometry": {"type": "Point", "coordinates": [9.17774868011, 48.7740325928]}, "type": "Feature", "properties": {"name": "G\u00fcl Kebap"}}, {"geometry": {"type": "Point", "coordinates": [11.0948495865, 49.4616394043]}, "type": "Feature", "properties": {"name": "Halikarnas"}}, {"geometry": {"type": "Point", "coordinates": [6.79486083984, 51.2224731445]}, "type": "Feature", "properties": {"name": "Saray"}}, {"geometry": {"type": "Point", "coordinates": [7.04043722153, 52.4577255249]}, "type": "Feature", "properties": {"name": "Mavi"}}, {"geometry": {"type": "Point", "coordinates": [6.94223022461, 50.9287376404]}, "type": "Feature", "properties": {"name": "D\u00f6ner Castle"}}, {"geometry": {"type": "Point", "coordinates": [11.9746828079, 51.4860687256]}, "type": "Feature", "properties": {"name": "Ali"}}, {"geometry": {"type": "Point", "coordinates": [10.964050293, 50.25623703]}, "type": "Feature", "properties": {"name": "Behnam"}}, {"geometry": {"type": "Point", "coordinates": [10.9550819397, 50.2556991577]}, "type": "Feature", "properties": {"name": "H\u00e4hnchen Grill"}}, {"geometry": {"type": "Point", "coordinates": [10.963092804, 50.2609825134]}, "type": "Feature", "properties": {"name": "Umut\u00b4s"}}, {"geometry": {"type": "Point", "coordinates": [7.62438297272, 51.2190895081]}, "type": "Feature", "properties": {"name": "Firat Grill"}}, {"geometry": {"type": "Point", "coordinates": [9.21160316467, 48.4920921326]}, "type": "Feature", "properties": {"name": "Koenig Kebap"}}, {"geometry": {"type": "Point", "coordinates": [6.90407800674, 50.9386749268]}, "type": "Feature", "properties": {"name": "Ayan (im Hit-Markt)"}}, {"geometry": {"type": "Point", "coordinates": [7.46148300171, 50.7715301514]}, "type": "Feature", "properties": {"name": "S\u00fcleyman"}}, {"geometry": {"type": "Point", "coordinates": [13.7531347275, 51.0651550293]}, "type": "Feature", "properties": {"name": "D\u00fcr\u00fcm Kebab Haus"}}, {"geometry": {"type": "Point", "coordinates": [8.66942310333, 50.1071739197]}, "type": "Feature", "properties": {"name": "Merkez Kebabhaus"}}, {"geometry": {"type": "Point", "coordinates": [10.0329751968, 51.1933364868]}, "type": "Feature", "properties": {"name": "Imbiss Spezial"}}, {"geometry": {"type": "Point", "coordinates": [9.17242527008, 47.6619377136]}, "type": "Feature", "properties": {"name": "dede d\u00f6ner"}}, {"geometry": {"type": "Point", "coordinates": [7.04654693604, 52.4246864319]}, "type": "Feature", "properties": {"name": "Bodrum"}}, {"geometry": {"type": "Point", "coordinates": [6.56647920609, 51.3323402405]}, "type": "Feature", "properties": {"name": "Bosporus"}}, {"geometry": {"type": "Point", "coordinates": [11.6457252502, 48.1001739502]}, "type": "Feature", "properties": {"name": "Ara\u00b4s D\u00f6nerbude am PEP"}}, {"geometry": {"type": "Point", "coordinates": [8.4173784256, 49.008846283]}, "type": "Feature", "properties": {"name": "Tunis Palace"}}, {"geometry": {"type": "Point", "coordinates": [8.84770488739, 52.9835853577]}, "type": "Feature", "properties": {"name": "Sultan D\u00f6ner"}}, {"geometry": {"type": "Point", "coordinates": [11.4511756897, 48.7720985413]}, "type": "Feature", "properties": {"name": "Pekel`s Imbiss"}}, {"geometry": {"type": "Point", "coordinates": [7.05008983612, 52.417339325]}, "type": "Feature", "properties": {"name": "Eiscafe & D\u00f6ner Marie"}}, {"geometry": {"type": "Point", "coordinates": [7.07149505615, 52.4363708496]}, "type": "Feature", "properties": {"name": "Efes"}}, {"geometry": {"type": "Point", "coordinates": [7.06427097321, 52.4411087036]}, "type": "Feature", "properties": {"name": "Pizzeria Merhaba"}}, {"geometry": {"type": "Point", "coordinates": [7.04823923111, 52.425113678]}, "type": "Feature", "properties": {"name": "Pizzeria Babylon"}}, {"geometry": {"type": "Point", "coordinates": [8.02866363525, 50.8965187073]}, "type": "Feature", "properties": {"name": "Alkas City Buffet"}}, {"geometry": {"type": "Point", "coordinates": [11.1379671097, 49.4014396667]}, "type": "Feature", "properties": {"name": "Aladin"}}, {"geometry": {"type": "Point", "coordinates": [7.04654693604, 52.4246864319]}, "type": "Feature", "properties": {"name": "Ararat"}}, {"geometry": {"type": "Point", "coordinates": [8.2418718338, 48.7584877014]}, "type": "Feature", "properties": {"name": "Sindbad\u00b4s"}}, {"geometry": {"type": "Point", "coordinates": [6.5636510849, 51.3304443359]}, "type": "Feature", "properties": {"name": "Antalya"}}, {"geometry": {"type": "Point", "coordinates": [6.56961202621, 51.3309364319]}, "type": "Feature", "properties": {"name": "Ates"}}, {"geometry": {"type": "Point", "coordinates": [10.470998764, 51.209274292]}, "type": "Feature", "properties": {"name": "Heval Grill II - D\u00f6ner & Pizza"}}, {"geometry": {"type": "Point", "coordinates": [10.4090433121, 53.251449585]}, "type": "Feature", "properties": {"name": "Merhaba"}}, {"geometry": {"type": "Point", "coordinates": [11.5837192535, 50.9295425415]}, "type": "Feature", "properties": {"name": "Mc D\u00f6ner"}}, {"geometry": {"type": "Point", "coordinates": [7.45642709732, 51.3504867554]}, "type": "Feature", "properties": {"name": "Sindbad-Grill"}}, {"geometry": {"type": "Point", "coordinates": [8.69485378265, 48.8908920288]}, "type": "Feature", "properties": {"name": "City-Grill"}}, {"geometry": {"type": "Point", "coordinates": [8.20621776581, 48.8558883667]}, "type": "Feature", "properties": {"name": "Ali Baba"}}, {"geometry": {"type": "Point", "coordinates": [7.67865610123, 52.8513031006]}, "type": "Feature", "properties": {"name": "La Roma"}}, {"geometry": {"type": "Point", "coordinates": [7.64178085327, 51.2219581604]}, "type": "Feature", "properties": {"name": "Mac D\u00f6ner"}}, {"geometry": {"type": "Point", "coordinates": [8.59346103668, 51.9484710693]}, "type": "Feature", "properties": {"name": "Harput Gril"}}, {"geometry": {"type": "Point", "coordinates": [6.08044719696, 50.7796478271]}, "type": "Feature", "properties": {"name": "Bodrum Grill"}}, {"geometry": {"type": "Point", "coordinates": [8.88714408875, 47.7556266785]}, "type": "Feature", "properties": {"name": "Sultan Imbiss"}}, {"geometry": {"type": "Point", "coordinates": [8.57416629791, 49.3854789734]}, "type": "Feature", "properties": {"name": "Vitamink\u00fcche"}}, {"geometry": {"type": "Point", "coordinates": [13.4803733826, 52.5352973938]}, "type": "Feature", "properties": {"name": "Eurocan"}}, {"geometry": {"type": "Point", "coordinates": [13.4356193542, 52.5381851196]}, "type": "Feature", "properties": {"name": "Ephesos"}}, {"geometry": {"type": "Point", "coordinates": [7.22844409943, 53.3403320312]}, "type": "Feature", "properties": {"name": "Pizza-Imbiss Roma"}}, {"geometry": {"type": "Point", "coordinates": [10.3810682297, 52.2617797852]}, "type": "Feature", "properties": {"name": "Ali Gueven"}}, {"geometry": {"type": "Point", "coordinates": [13.5503168106, 52.5446853638]}, "type": "Feature", "properties": {"name": "Grillo"}}, {"geometry": {"type": "Point", "coordinates": [11.0743713379, 49.4510536194]}, "type": "Feature", "properties": {"name": "Atlantik-D\u00f6ner"}}, {"geometry": {"type": "Point", "coordinates": [11.5305652618, 48.1829338074]}, "type": "Feature", "properties": {"name": "D\u00f6ner am OEZ"}}, {"geometry": {"type": "Point", "coordinates": [11.5397586823, 48.1106681824]}, "type": "Feature", "properties": {"name": "Hatay Boerek"}}, {"geometry": {"type": "Point", "coordinates": [8.31969070435, 48.8048973083]}, "type": "Feature", "properties": {"name": "Efes Kebaphaus"}}, {"geometry": {"type": "Point", "coordinates": [9.65105247498, 48.7040367126]}, "type": "Feature", "properties": {"name": "Galip"}}, {"geometry": {"type": "Point", "coordinates": [9.72221183777, 52.388710022]}, "type": "Feature", "properties": {"name": "Kebab 44"}}, {"geometry": {"type": "Point", "coordinates": [9.21965694427, 48.6786880493]}, "type": "Feature", "properties": {"name": "Bosporus Kebap"}}, {"geometry": {"type": "Point", "coordinates": [8.27211380005, 50.0004768372]}, "type": "Feature", "properties": {"name": "D\u00f6ner im Kaufhof"}}, {"geometry": {"type": "Point", "coordinates": [7.14933395386, 51.4334716797]}, "type": "Feature", "properties": {"name": "Ali Babas Kebab Haus"}}, {"geometry": {"type": "Point", "coordinates": [12.7530012131, 50.8582420349]}, "type": "Feature", "properties": {"name": "Schahrazad"}}, {"geometry": {"type": "Point", "coordinates": [7.68047714233, 50.7642250061]}, "type": "Feature", "properties": {"name": "Kebab-Pizza-Haus \u00dcmit"}}, {"geometry": {"type": "Point", "coordinates": [9.24462223053, 48.3080673218]}, "type": "Feature", "properties": {"name": "Regenbogen"}}, {"geometry": {"type": "Point", "coordinates": [14.648686409, 51.7421798706]}, "type": "Feature", "properties": {"name": "D\u00f6ner Kebab[ Hassan]"}}, {"geometry": {"type": "Point", "coordinates": [13.3014421463, 52.5247840881]}, "type": "Feature", "properties": {"name": "kral d\u00f6ner"}}, {"geometry": {"type": "Point", "coordinates": [8.46580505371, 49.7783927917]}, "type": "Feature", "properties": {"name": "EFE D\u00f6ner"}}, {"geometry": {"type": "Point", "coordinates": [7.9477558136, 53.5370979309]}, "type": "Feature", "properties": {"name": "Euphrat Grill- Restaurant"}}, {"geometry": {"type": "Point", "coordinates": [10.047451973, 53.5586128235]}, "type": "Feature", "properties": {"name": "D\u00f6nerimbiss"}}, {"geometry": {"type": "Point", "coordinates": [12.7375154495, 50.7896537781]}, "type": "Feature", "properties": {"name": "Kebab Imbiss (Name nicht im Kopf)"}}, {"geometry": {"type": "Point", "coordinates": [8.99096870422, 49.6601295471]}, "type": "Feature", "properties": {"name": "Saray D\u00f6ner Kebab Haus"}}, {"geometry": {"type": "Point", "coordinates": [12.0986757278, 50.8803367615]}, "type": "Feature", "properties": {"name": "Anadolu"}}, {"geometry": {"type": "Point", "coordinates": [12.2257242203, 51.8406906128]}, "type": "Feature", "properties": {"name": "T\u00fcrkiyem B\u00fcfe"}}, {"geometry": {"type": "Point", "coordinates": [12.3259057999, 51.3143768311]}, "type": "Feature", "properties": {"name": "Sultan-Planet"}}, {"geometry": {"type": "Point", "coordinates": [9.13453006744, 48.9512557983]}, "type": "Feature", "properties": {"name": "IBO - MARMARIS"}}, {"geometry": {"type": "Point", "coordinates": [12.9739923477, 52.2389183044]}, "type": "Feature", "properties": {"name": "keine Ahnung"}}, {"geometry": {"type": "Point", "coordinates": [10.3286209106, 50.7562294006]}, "type": "Feature", "properties": {"name": "BOSPORUS"}}, {"geometry": {"type": "Point", "coordinates": [13.1972017288, 52.5317115784]}, "type": "Feature", "properties": {"name": "Lale"}}, {"geometry": {"type": "Point", "coordinates": [10.1328001022, 54.3334465027]}, "type": "Feature", "properties": {"name": "Alanya"}}, {"geometry": {"type": "Point", "coordinates": [13.3133058548, 52.5150222778]}, "type": "Feature", "properties": {"name": "KIBO"}}, {"geometry": {"type": "Point", "coordinates": [11.5368404388, 48.133808136]}, "type": "Feature", "properties": {"name": "Antalya"}}, {"geometry": {"type": "Point", "coordinates": [13.3285655975, 52.5310783386]}, "type": "Feature", "properties": {"name": "Troja Grill"}}, {"geometry": {"type": "Point", "coordinates": [11.5416069031, 48.1346511841]}, "type": "Feature", "properties": {"name": "Orient Imbiss"}}, {"geometry": {"type": "Point", "coordinates": [9.83762645721, 54.4746932983]}, "type": "Feature", "properties": {"name": "D\u00f6nertreff"}}, {"geometry": {"type": "Point", "coordinates": [8.62171173096, 49.6989707947]}, "type": "Feature", "properties": {"name": "Demir-D\u00f6ner"}}, {"geometry": {"type": "Point", "coordinates": [7.65916109085, 47.6121826172]}, "type": "Feature", "properties": {"name": "Mediteran"}}, {"geometry": {"type": "Point", "coordinates": [7.66054677963, 47.6122055054]}, "type": "Feature", "properties": {"name": "Damas Cafe"}}, {"geometry": {"type": "Point", "coordinates": [11.0031366348, 49.5994338989]}, "type": "Feature", "properties": {"name": "Ak-Saray"}}, {"geometry": {"type": "Point", "coordinates": [9.05580234528, 54.4782714844]}, "type": "Feature", "properties": {"name": "Mamari\u00b4s Restaurant"}}, {"geometry": {"type": "Point", "coordinates": [9.50807380676, 49.2006988525]}, "type": "Feature", "properties": {"name": "Pils-Pub"}}, {"geometry": {"type": "Point", "coordinates": [8.70357036591, 49.411365509]}, "type": "Feature", "properties": {"name": "Cedras - Libanesische Spezialit\u00e4ten"}}, {"geometry": {"type": "Point", "coordinates": [7.66272783279, 47.6128463745]}, "type": "Feature", "properties": {"name": "Robins Imbiss"}}, {"geometry": {"type": "Point", "coordinates": [11.9746828079, 51.4860687256]}, "type": "Feature", "properties": {"name": "Toros"}}, {"geometry": {"type": "Point", "coordinates": [7.65894079208, 47.6022186279]}, "type": "Feature", "properties": {"name": "Orient Express"}}, {"geometry": {"type": "Point", "coordinates": [13.2501630783, 52.7730293274]}, "type": "Feature", "properties": {"name": "Eurocan"}}, {"geometry": {"type": "Point", "coordinates": [9.73882102966, 52.3815727234]}, "type": "Feature", "properties": {"name": "Flamingo"}}, {"geometry": {"type": "Point", "coordinates": [7.08291578293, 51.1706237793]}, "type": "Feature", "properties": {"name": "Marmaris-Grill"}}, {"geometry": {"type": "Point", "coordinates": [7.70242404938, 47.6365661621]}, "type": "Feature", "properties": {"name": "Pick Nick"}}, {"geometry": {"type": "Point", "coordinates": [8.85440540314, 51.4602737427]}, "type": "Feature", "properties": {"name": "PIZZA und D\u00d6NERHAUS Burhan"}}, {"geometry": {"type": "Point", "coordinates": [13.2633934021, 53.5571212769]}, "type": "Feature", "properties": {"name": "D\u00f6nerbude"}}, {"geometry": {"type": "Point", "coordinates": [9.98046875, 53.5678825378]}, "type": "Feature", "properties": {"name": "Selcuk D\u00f6ner"}}, {"geometry": {"type": "Point", "coordinates": [7.51506185532, 51.6121788025]}, "type": "Feature", "properties": {"name": "ORA Grill Restaurant Pizzeria"}}, {"geometry": {"type": "Point", "coordinates": [9.93163490295, 51.5333824158]}, "type": "Feature", "properties": {"name": "Efendi Efendi Efendi"}}, {"geometry": {"type": "Point", "coordinates": [11.5708293915, 49.9448547363]}, "type": "Feature", "properties": {"name": "Istanbul"}}, {"geometry": {"type": "Point", "coordinates": [8.53973960876, 52.0207328796]}, "type": "Feature", "properties": {"name": "Pamukkale D\u00f6ner"}}, {"geometry": {"type": "Point", "coordinates": [13.9974088669, 53.0150947571]}, "type": "Feature", "properties": {"name": "Hasan\u00b4s D\u00f6ner"}}, {"geometry": {"type": "Point", "coordinates": [9.12121105194, 51.1184463501]}, "type": "Feature", "properties": {"name": "TITANIC"}}, {"geometry": {"type": "Point", "coordinates": [10.3072681427, 50.8009376526]}, "type": "Feature", "properties": {"name": "ANTALYA"}}, {"geometry": {"type": "Point", "coordinates": [10.4533748627, 50.7222213745]}, "type": "Feature", "properties": {"name": "HEVAL Grill"}}, {"geometry": {"type": "Point", "coordinates": [10.2542982101, 50.8113098145]}, "type": "Feature", "properties": {"name": "HEVAL Grill"}}, {"geometry": {"type": "Point", "coordinates": [13.8142375946, 51.054775238]}, "type": "Feature", "properties": {"name": "D\u00f6ner Schnellimbi\u00df"}}, {"geometry": {"type": "Point", "coordinates": [9.66225242615, 53.7562446594]}, "type": "Feature", "properties": {"name": "D\u00f6ner- Grillhaus"}}, {"geometry": {"type": "Point", "coordinates": [12.4072475433, 51.3446273804]}, "type": "Feature", "properties": {"name": "Adana-D\u00f6ner"}}, {"geometry": {"type": "Point", "coordinates": [10.5170545578, 52.2602043152]}, "type": "Feature", "properties": {"name": "Tandir"}}, {"geometry": {"type": "Point", "coordinates": [6.93268203735, 50.934009552]}, "type": "Feature", "properties": {"name": "Big Burger"}}, {"geometry": {"type": "Point", "coordinates": [10.0270843506, 53.585395813]}, "type": "Feature", "properties": {"name": "Dubara"}}, {"geometry": {"type": "Point", "coordinates": [9.65640926361, 53.7539215088]}, "type": "Feature", "properties": {"name": "Sultans Kebap"}}, {"geometry": {"type": "Point", "coordinates": [10.8889894485, 54.2915267944]}, "type": "Feature", "properties": {"name": "D\u00f6ner Treff"}}, {"geometry": {"type": "Point", "coordinates": [10.9650163651, 50.2482795715]}, "type": "Feature", "properties": {"name": "D\u00f6ner Am CC-Gro\u00dfmarkt"}}, {"geometry": {"type": "Point", "coordinates": [10.9720983505, 50.268409729]}, "type": "Feature", "properties": {"name": "D\u00f6ner am Schwimmbad"}}, {"geometry": {"type": "Point", "coordinates": [13.4077758789, 52.5367088318]}, "type": "Feature", "properties": {"name": "Kastaniengrill bei Ismail"}}, {"geometry": {"type": "Point", "coordinates": [11.6397819519, 52.1450424194]}, "type": "Feature", "properties": {"name": "Marmaris Grill"}}, {"geometry": {"type": "Point", "coordinates": [11.981710434, 51.4654960632]}, "type": "Feature", "properties": {"name": "Erbil Muesluem"}}, {"geometry": {"type": "Point", "coordinates": [8.94830703735, 50.2856788635]}, "type": "Feature", "properties": {"name": "Marmaris Kebap Haus"}}, {"geometry": {"type": "Point", "coordinates": [9.27975940704, 50.2096099854]}, "type": "Feature", "properties": {"name": "Deniz Grill"}}, {"geometry": {"type": "Point", "coordinates": [8.94521141052, 50.2858772278]}, "type": "Feature", "properties": {"name": "Chihan Eck"}}, {"geometry": {"type": "Point", "coordinates": [9.11189174652, 50.2921142578]}, "type": "Feature", "properties": {"name": "Korkmaz & Alganatay"}}, {"geometry": {"type": "Point", "coordinates": [9.10816764832, 50.288066864]}, "type": "Feature", "properties": {"name": "Klein Istanbul"}}, {"geometry": {"type": "Point", "coordinates": [8.99745368958, 50.2329902649]}, "type": "Feature", "properties": {"name": "Doener 2000"}}, {"geometry": {"type": "Point", "coordinates": [9.87942695618, 51.8257369995]}, "type": "Feature", "properties": {"name": "D\u00f6ner Haus"}}, {"geometry": {"type": "Point", "coordinates": [13.1802082062, 52.5483055115]}, "type": "Feature", "properties": {"name": "Sultan Sofrasi"}}, {"geometry": {"type": "Point", "coordinates": [7.39575242996, 52.1233177185]}, "type": "Feature", "properties": {"name": "Sibels D\u00f6ner-Pizzeria"}}, {"geometry": {"type": "Point", "coordinates": [7.84562110901, 47.6795501709]}, "type": "Feature", "properties": {"name": "Hatay Imbiss"}}, {"geometry": {"type": "Point", "coordinates": [6.95836591721, 50.9256629944]}, "type": "Feature", "properties": {"name": "Talya"}}, {"geometry": {"type": "Point", "coordinates": [9.70655536652, 47.5598182678]}, "type": "Feature", "properties": {"name": "D\u00f6ner am K\u00f6chlin"}}, {"geometry": {"type": "Point", "coordinates": [9.93860626221, 51.5337600708]}, "type": "Feature", "properties": {"name": "Europic"}}, {"geometry": {"type": "Point", "coordinates": [8.35794258118, 49.6567192078]}, "type": "Feature", "properties": {"name": "Istanbul D\u00f6nerladen"}}, {"geometry": {"type": "Point", "coordinates": [11.917514801, 50.3142929077]}, "type": "Feature", "properties": {"name": "Imbi\u00df Aladin"}}, {"geometry": {"type": "Point", "coordinates": [6.07650279999, 50.7731742859]}, "type": "Feature", "properties": {"name": "Bambi-Grill"}}, {"geometry": {"type": "Point", "coordinates": [6.78297519684, 49.7718811035]}, "type": "Feature", "properties": {"name": "Derwisch"}}, {"geometry": {"type": "Point", "coordinates": [12.3416166306, 52.6083297729]}, "type": "Feature", "properties": {"name": "D\u00f6nerimbi\u00df"}}, {"geometry": {"type": "Point", "coordinates": [10.9167699814, 50.687297821]}, "type": "Feature", "properties": {"name": "Aladin Grill"}}, {"geometry": {"type": "Point", "coordinates": [10.9232845306, 50.6828804016]}, "type": "Feature", "properties": {"name": "Kanarya"}}, {"geometry": {"type": "Point", "coordinates": [8.27292156219, 49.6374320984]}, "type": "Feature", "properties": {"name": "Imbiss Oase"}}, {"geometry": {"type": "Point", "coordinates": [12.1989278793, 50.6565284729]}, "type": "Feature", "properties": {"name": "Istanbul Imbiss"}}, {"geometry": {"type": "Point", "coordinates": [7.39496421814, 52.1255073547]}, "type": "Feature", "properties": {"name": "Onkel Ali"}}, {"geometry": {"type": "Point", "coordinates": [13.3795881271, 52.5527801514]}, "type": "Feature", "properties": {"name": "IMREN 2"}}, {"geometry": {"type": "Point", "coordinates": [11.9412622452, 51.4799537659]}, "type": "Feature", "properties": {"name": "Istanbul"}}, {"geometry": {"type": "Point", "coordinates": [7.07042694092, 52.4378547668]}, "type": "Feature", "properties": {"name": "Pizzeria Mano\u00b4s Grill"}}, {"geometry": {"type": "Point", "coordinates": [7.07315683365, 52.3915176392]}, "type": "Feature", "properties": {"name": "Prizzeria Marmaris"}}, {"geometry": {"type": "Point", "coordinates": [7.06753206253, 52.4102020264]}, "type": "Feature", "properties": {"name": "Karawan"}}, {"geometry": {"type": "Point", "coordinates": [7.07035684586, 52.4378738403]}, "type": "Feature", "properties": {"name": "IBO\u00b4s Kebap-Haus"}}, {"geometry": {"type": "Point", "coordinates": [8.45209503174, 49.6845817566]}, "type": "Feature", "properties": {"name": "EFE D\u00f6ner"}}, {"geometry": {"type": "Point", "coordinates": [7.33997821808, 52.1491127014]}, "type": "Feature", "properties": {"name": "Pizzeria Perino"}}, {"geometry": {"type": "Point", "coordinates": [13.1932849884, 52.5201148987]}, "type": "Feature", "properties": {"name": "Millenium D\u00f6ner"}}, {"geometry": {"type": "Point", "coordinates": [30.7031345367, 36.8875045776]}, "type": "Feature", "properties": {"name": "Ali-Kabab"}}, {"geometry": {"type": "Point", "coordinates": [10.1568460464, 54.3958740234]}, "type": "Feature", "properties": {"name": "Friedrichsorter Grilltreff"}}, {"geometry": {"type": "Point", "coordinates": [11.581363678, 50.9292793274]}, "type": "Feature", "properties": {"name": "Der Syrer"}}, {"geometry": {"type": "Point", "coordinates": [8.67499542236, 49.9895019531]}, "type": "Feature", "properties": {"name": "D\u00f6ner am Lutherplatz"}}, {"geometry": {"type": "Point", "coordinates": [8.67499542236, 49.9895019531]}, "type": "Feature", "properties": {"name": "Aladdin"}}, {"geometry": {"type": "Point", "coordinates": [13.1775913239, 52.6868438721]}, "type": "Feature", "properties": {"name": "Doener Kebap"}}, {"geometry": {"type": "Point", "coordinates": [7.82175302505, 51.6822242737]}, "type": "Feature", "properties": {"name": "Anadolu Kebap Haus"}}, {"geometry": {"type": "Point", "coordinates": [9.42975234985, 52.424823761]}, "type": "Feature", "properties": {"name": "Bosporus Grill"}}, {"geometry": {"type": "Point", "coordinates": [11.1401777267, 50.3366889954]}, "type": "Feature", "properties": {"name": "Kebap Haus"}}, {"geometry": {"type": "Point", "coordinates": [8.6705198288, 49.9576416016]}, "type": "Feature", "properties": {"name": "Roller-Imbiss"}}, {"geometry": {"type": "Point", "coordinates": [8.6705198288, 49.9576416016]}, "type": "Feature", "properties": {"name": "Imbiss bei Sollath"}}, {"geometry": {"type": "Point", "coordinates": [8.90087985992, 52.0268745422]}, "type": "Feature", "properties": {"name": "D\u00f6ner-Express/Lemgo"}}, {"geometry": {"type": "Point", "coordinates": [7.59653997421, 47.5961608887]}, "type": "Feature", "properties": {"name": "D\u00f6ner & Pizza Imbiss"}}, {"geometry": {"type": "Point", "coordinates": [8.49094390869, 49.9158096313]}, "type": "Feature", "properties": {"name": "Babos"}}, {"geometry": {"type": "Point", "coordinates": [6.9697971344, 49.244972229]}, "type": "Feature", "properties": {"name": "Antalya"}}, {"geometry": {"type": "Point", "coordinates": [12.0929613113, 49.0192718506]}, "type": "Feature", "properties": {"name": "Ephesus"}}, {"geometry": {"type": "Point", "coordinates": [7.03088712692, 49.3444633484]}, "type": "Feature", "properties": {"name": "Bosporus D\u00f6ner Kebap"}}, {"geometry": {"type": "Point", "coordinates": [7.31252717972, 50.2985153198]}, "type": "Feature", "properties": {"name": "D\u00f6nermania"}}, {"geometry": {"type": "Point", "coordinates": [12.3735666275, 51.3201065063]}, "type": "Feature", "properties": {"name": "aldiana - down town"}}, {"geometry": {"type": "Point", "coordinates": [9.18984603882, 50.1969032288]}, "type": "Feature", "properties": {"name": "Kebab am Bahnhof"}}, {"geometry": {"type": "Point", "coordinates": [7.52954387665, 49.9934654236]}, "type": "Feature", "properties": {"name": "andala kebap"}}, {"geometry": {"type": "Point", "coordinates": [7.05826187134, 51.445514679]}, "type": "Feature", "properties": {"name": "Burak Kebap Haus"}}, {"geometry": {"type": "Point", "coordinates": [10.2050771713, 53.9507865906]}, "type": "Feature", "properties": {"name": "Bei G\u00fcven"}}, {"geometry": {"type": "Point", "coordinates": [10.6035909653, 52.7308692932]}, "type": "Feature", "properties": {"name": "Serif-Imbiss"}}, {"geometry": {"type": "Point", "coordinates": [13.2526607513, 52.4498062134]}, "type": "Feature", "properties": {"name": "Big Doener"}}, {"geometry": {"type": "Point", "coordinates": [9.44693279266, 48.649143219]}, "type": "Feature", "properties": {"name": "Akdeniz D\u00f6ner"}}, {"geometry": {"type": "Point", "coordinates": [11.0027589798, 49.6013412476]}, "type": "Feature", "properties": {"name": "AVRASAYA"}}, {"geometry": {"type": "Point", "coordinates": [7.22195100784, 51.4802017212]}, "type": "Feature", "properties": {"name": "Topkapi-Grill"}}, {"geometry": {"type": "Point", "coordinates": [10.0077581406, 51.8709259033]}, "type": "Feature", "properties": {"name": "D\u00f6ner - Pizza - Haus"}}, {"geometry": {"type": "Point", "coordinates": [8.72046375275, 50.1001663208]}, "type": "Feature", "properties": {"name": "Euphrat Kebap Haus"}}, {"geometry": {"type": "Point", "coordinates": [9.25434494019, 48.759601593]}, "type": "Feature", "properties": {"name": "Endstation Kebap"}}, {"geometry": {"type": "Point", "coordinates": [7.45682382584, 53.2335319519]}, "type": "Feature", "properties": {"name": "Istanbul"}}, {"geometry": {"type": "Point", "coordinates": [6.12910985947, 51.7834510803]}, "type": "Feature", "properties": {"name": "Frieden-D\u00f6ner"}}, {"geometry": {"type": "Point", "coordinates": [8.94110584259, 53.0664825439]}, "type": "Feature", "properties": {"name": "Don Alfredo"}}, {"geometry": {"type": "Point", "coordinates": [9.98875427246, 48.399559021]}, "type": "Feature", "properties": {"name": "Saray Kebab"}}, {"geometry": {"type": "Point", "coordinates": [10.5066356659, 51.531879425]}, "type": "Feature", "properties": {"name": "Ali Baba"}}, {"geometry": {"type": "Point", "coordinates": [8.79437065125, 53.0742645264]}, "type": "Feature", "properties": {"name": "IMBISS Barbar"}}, {"geometry": {"type": "Point", "coordinates": [9.17251491547, 48.7745056152]}, "type": "Feature", "properties": {"name": "Kebab F\u00fcrst"}}, {"geometry": {"type": "Point", "coordinates": [8.64854621887, 50.5312957764]}, "type": "Feature", "properties": {"name": "Orientgrill"}}, {"geometry": {"type": "Point", "coordinates": [6.97585296631, 51.4497375488]}, "type": "Feature", "properties": {"name": "Bei Remmo"}}, {"geometry": {"type": "Point", "coordinates": [8.62225341797, 49.6803741455]}, "type": "Feature", "properties": {"name": "Star Kebab"}}, {"geometry": {"type": "Point", "coordinates": [8.39348983765, 49.0106811523]}, "type": "Feature", "properties": {"name": "Bayram KEBAP-HAUS"}}, {"geometry": {"type": "Point", "coordinates": [9.16798686981, 48.7780723572]}, "type": "Feature", "properties": {"name": "Bosporus Kebab"}}, {"geometry": {"type": "Point", "coordinates": [9.96578884125, 53.5498962402]}, "type": "Feature", "properties": {"name": "Mr. D\u00f6ner"}}, {"geometry": {"type": "Point", "coordinates": [10.0147027969, 53.5546607971]}, "type": "Feature", "properties": {"name": "Lades H\u00e4hnchenland"}}, {"geometry": {"type": "Point", "coordinates": [9.96380138397, 53.5624732971]}, "type": "Feature", "properties": {"name": "Pamukkale Imbiss"}}, {"geometry": {"type": "Point", "coordinates": [9.9601688385, 53.5512313843]}, "type": "Feature", "properties": {"name": "Deniz Imbiss"}}, {"geometry": {"type": "Point", "coordinates": [11.6742210388, 48.2691192627]}, "type": "Feature", "properties": {"name": "Doener am Eck"}}, {"geometry": {"type": "Point", "coordinates": [9.90143966675, 53.7309112549]}, "type": "Feature", "properties": {"name": "Istanbul Kebab Haus"}}, {"geometry": {"type": "Point", "coordinates": [10.7819166183, 52.4257774353]}, "type": "Feature", "properties": {"name": "Side Imbi\u00df"}}, {"geometry": {"type": "Point", "coordinates": [10.1539936066, 53.6015777588]}, "type": "Feature", "properties": {"name": "Sultans Kepab"}}, {"geometry": {"type": "Point", "coordinates": [9.17134380341, 48.7754211426]}, "type": "Feature", "properties": {"name": "Pinar Kebab"}}, {"geometry": {"type": "Point", "coordinates": [9.06146907806, 48.5288085938]}, "type": "Feature", "properties": {"name": "Snackhouse (ehem. Pinar 2)"}}, {"geometry": {"type": "Point", "coordinates": [9.9775428772, 53.5838394165]}, "type": "Feature", "properties": {"name": "Al Pasha"}}, {"geometry": {"type": "Point", "coordinates": [10.0587644577, 53.5513267517]}, "type": "Feature", "properties": {"name": "G\u00fcltekin Imbiss"}}, {"geometry": {"type": "Point", "coordinates": [10.0378990173, 53.561126709]}, "type": "Feature", "properties": {"name": "Imbiss S-Bahn Landwehr"}}, {"geometry": {"type": "Point", "coordinates": [10.0119791031, 53.5580863953]}, "type": "Feature", "properties": {"name": "Batman"}}, {"geometry": {"type": "Point", "coordinates": [10.0136537552, 53.5515785217]}, "type": "Feature", "properties": {"name": "D\u00f6ner Laden in Wal*Mart Berliner Tor"}}, {"geometry": {"type": "Point", "coordinates": [9.05645275116, 48.5163002014]}, "type": "Feature", "properties": {"name": "Parkgastst\u00e4tte"}}, {"geometry": {"type": "Point", "coordinates": [10.0782165527, 53.5483779907]}, "type": "Feature", "properties": {"name": "Baris Grillhaus"}}, {"geometry": {"type": "Point", "coordinates": [8.6879825592, 49.4055557251]}, "type": "Feature", "properties": {"name": "Kervansaray"}}, {"geometry": {"type": "Point", "coordinates": [8.22962188721, 51.2205848694]}, "type": "Feature", "properties": {"name": "Ali-Baba"}}, {"geometry": {"type": "Point", "coordinates": [13.412946701, 52.5453071594]}, "type": "Feature", "properties": {"name": "Bosporus Grill"}}, {"geometry": {"type": "Point", "coordinates": [9.92973899841, 53.5520553589]}, "type": "Feature", "properties": {"name": "Onur"}}, {"geometry": {"type": "Point", "coordinates": [9.92992782593, 53.5554161072]}, "type": "Feature", "properties": {"name": "King-D\u00f6ner"}}, {"geometry": {"type": "Point", "coordinates": [6.08134698868, 50.7685241699]}, "type": "Feature", "properties": {"name": "Botan-Grill"}}, {"geometry": {"type": "Point", "coordinates": [7.33709907532, 52.1470375061]}, "type": "Feature", "properties": {"name": "Pizzeria Avanti"}}, {"geometry": {"type": "Point", "coordinates": [10.0393610001, 53.555355072]}, "type": "Feature", "properties": {"name": "Kebab Haus"}}, {"geometry": {"type": "Point", "coordinates": [10.0351543427, 53.5548439026]}, "type": "Feature", "properties": {"name": " D\u00f6ner Kebab - Haus"}}, {"geometry": {"type": "Point", "coordinates": [9.99597930908, 53.5939826965]}, "type": "Feature", "properties": {"name": "Selcuk Imbis"}}, {"geometry": {"type": "Point", "coordinates": [10.8022403717, 52.4478530884]}, "type": "Feature", "properties": {"name": "Orient D\u00f6ner"}}, {"geometry": {"type": "Point", "coordinates": [9.96116065979, 53.549331665]}, "type": "Feature", "properties": {"name": "Holiday"}}, {"geometry": {"type": "Point", "coordinates": [9.96366405487, 53.5493774414]}, "type": "Feature", "properties": {"name": "Hafen Grill"}}, {"geometry": {"type": "Point", "coordinates": [7.16986083984, 51.1927986145]}, "type": "Feature", "properties": {"name": "Agas"}}, {"geometry": {"type": "Point", "coordinates": [9.17373657227, 48.7736701965]}, "type": "Feature", "properties": {"name": "Beykebab"}}, {"geometry": {"type": "Point", "coordinates": [9.90072441101, 53.5699996948]}, "type": "Feature", "properties": {"name": "Antep Kebaphaus"}}, {"geometry": {"type": "Point", "coordinates": [10.6785240173, 53.8777885437]}, "type": "Feature", "properties": {"name": "Sereetzer Kebap Haus"}}, {"geometry": {"type": "Point", "coordinates": [11.5709495544, 48.1165122986]}, "type": "Feature", "properties": {"name": "Giesinger Side Imbiss"}}, {"geometry": {"type": "Point", "coordinates": [11.255364418, 48.1777572632]}, "type": "Feature", "properties": {"name": "Sonnenimbiss"}}, {"geometry": {"type": "Point", "coordinates": [9.93016529083, 53.5512428284]}, "type": "Feature", "properties": {"name": "Kavaneray"}}, {"geometry": {"type": "Point", "coordinates": [7.12573432922, 50.9913825989]}, "type": "Feature", "properties": {"name": "Side"}}, {"geometry": {"type": "Point", "coordinates": [10.5030879974, 52.2573928833]}, "type": "Feature", "properties": {"name": "D\u00f6nermann im Jolly-Joker"}}, {"geometry": {"type": "Point", "coordinates": [10.8805522919, 48.3852729797]}, "type": "Feature", "properties": {"name": "Nur Sultan"}}, {"geometry": {"type": "Point", "coordinates": [6.88226509094, 51.4274177551]}, "type": "Feature", "properties": {"name": "Orient Express 4"}}, {"geometry": {"type": "Point", "coordinates": [10.7890548706, 52.425037384]}, "type": "Feature", "properties": {"name": "Ali Doener"}}, {"geometry": {"type": "Point", "coordinates": [10.5247278214, 52.2582130432]}, "type": "Feature", "properties": {"name": "mustafa und seine familie"}}, {"geometry": {"type": "Point", "coordinates": [10.0145702362, 53.554599762]}, "type": "Feature", "properties": {"name": "Mekan"}}, {"geometry": {"type": "Point", "coordinates": [9.96208667755, 53.554019928]}, "type": "Feature", "properties": {"name": "Oriental Imbiss"}}, {"geometry": {"type": "Point", "coordinates": [10.0107879639, 53.5570793152]}, "type": "Feature", "properties": {"name": "Kebap Haus"}}, {"geometry": {"type": "Point", "coordinates": [10.0132961273, 53.5540351868]}, "type": "Feature", "properties": {"name": "Coffee & Grill Shop"}}, {"geometry": {"type": "Point", "coordinates": [6.12605714798, 51.7792205811]}, "type": "Feature", "properties": {"name": "Batman-D\u00f6ner"}}, {"geometry": {"type": "Point", "coordinates": [10.7403326035, 52.4058876038]}, "type": "Feature", "properties": {"name": "Futtergrippe"}}, {"geometry": {"type": "Point", "coordinates": [7.07667589188, 51.4292869568]}, "type": "Feature", "properties": {"name": "Schwarzes Meer - Tuerkische Grill-Spezialitaeten"}}, {"geometry": {"type": "Point", "coordinates": [10.7385978699, 52.4031906128]}, "type": "Feature", "properties": {"name": "Grillstation"}}, {"geometry": {"type": "Point", "coordinates": [13.1823177338, 52.6888084412]}, "type": "Feature", "properties": {"name": "Weisses Haus"}}, {"geometry": {"type": "Point", "coordinates": [13.2090110779, 52.6311187744]}, "type": "Feature", "properties": {"name": "Doena Dogan (am bahnhof)"}}, {"geometry": {"type": "Point", "coordinates": [10.0357017517, 53.5581130981]}, "type": "Feature", "properties": {"name": "Drive Pizza Service"}}, {"geometry": {"type": "Point", "coordinates": [8.91918754578, 50.1316299438]}, "type": "Feature", "properties": {"name": "Y\u00fcr\u00fcr Kebab Haus"}}, {"geometry": {"type": "Point", "coordinates": [10.0117797852, 53.5578117371]}, "type": "Feature", "properties": {"name": "Sultan Lange Reihe"}}, {"geometry": {"type": "Point", "coordinates": [11.0750741959, 49.450050354]}, "type": "Feature", "properties": {"name": "Pascha D\u00f6ner"}}, {"geometry": {"type": "Point", "coordinates": [6.94369697571, 49.3083076477]}, "type": "Feature", "properties": {"name": "Istanbul"}}, {"geometry": {"type": "Point", "coordinates": [13.4474029541, 52.4782447815]}, "type": "Feature", "properties": {"name": "BALLI IMBISS"}}, {"geometry": {"type": "Point", "coordinates": [6.85854482651, 49.2500457764]}, "type": "Feature", "properties": {"name": "URFA KEBAP"}}, {"geometry": {"type": "Point", "coordinates": [8.01301002502, 50.8712348938]}, "type": "Feature", "properties": {"name": "Schwarzes Meer Imbiss"}}, {"geometry": {"type": "Point", "coordinates": [13.3707466125, 52.5398597717]}, "type": "Feature", "properties": {"name": "Kismet Grill"}}, {"geometry": {"type": "Point", "coordinates": [8.04446220398, 52.2736434937]}, "type": "Feature", "properties": {"name": "Ali Babar"}}, {"geometry": {"type": "Point", "coordinates": [10.0151481628, 53.5548591614]}, "type": "Feature", "properties": {"name": "Sait Grill Haus"}}, {"geometry": {"type": "Point", "coordinates": [11.5574054718, 48.1391525269]}, "type": "Feature", "properties": {"name": "D\u00f6ner Burger"}}, {"geometry": {"type": "Point", "coordinates": [8.79507827759, 48.7258377075]}, "type": "Feature", "properties": {"name": "Munzur Imbiss"}}, {"geometry": {"type": "Point", "coordinates": [8.47035121918, 49.4794120789]}, "type": "Feature", "properties": {"name": "D\u00f6ner Pavillion"}}, {"geometry": {"type": "Point", "coordinates": [13.6639785767, 51.0469703674]}, "type": "Feature", "properties": {"name": "keine ahnung"}}, {"geometry": {"type": "Point", "coordinates": [11.8782243729, 51.5147666931]}, "type": "Feature", "properties": {"name": "Musloem D\u00f6ner Paradies 2"}}, {"geometry": {"type": "Point", "coordinates": [10.1027145386, 53.5398330688]}, "type": "Feature", "properties": {"name": "Merhaba Schnell-Restaurant"}}, {"geometry": {"type": "Point", "coordinates": [11.5533571243, 48.1269683838]}, "type": "Feature", "properties": {"name": "Kebap Haus"}}, {"geometry": {"type": "Point", "coordinates": [6.19762992859, 51.3237190247]}, "type": "Feature", "properties": {"name": "Kerkuk Kebap"}}, {"geometry": {"type": "Point", "coordinates": [9.77207946777, 52.3339195251]}, "type": "Feature", "properties": {"name": "D\u00f6ner King"}}, {"geometry": {"type": "Point", "coordinates": [13.3812847137, 52.5727081299]}, "type": "Feature", "properties": {"name": "Curry Station"}}, {"geometry": {"type": "Point", "coordinates": [13.4009380341, 52.5301437378]}, "type": "Feature", "properties": {"name": "Competition"}}, {"geometry": {"type": "Point", "coordinates": [13.4298048019, 52.5332221985]}, "type": "Feature", "properties": {"name": "Cavello"}}, {"geometry": {"type": "Point", "coordinates": [7.17170000076, 51.4093780518]}, "type": "Feature", "properties": {"name": "Ruhr- Doener"}}, {"geometry": {"type": "Point", "coordinates": [13.414150238, 52.5526847839]}, "type": "Feature", "properties": {"name": "Burcu Kebap Center"}}, {"geometry": {"type": "Point", "coordinates": [13.0833473206, 52.3771324158]}, "type": "Feature", "properties": {"name": "Grillhaus Potsdam"}}, {"geometry": {"type": "Point", "coordinates": [12.6497564316, 51.8650436401]}, "type": "Feature", "properties": {"name": "Bistro XXL 2"}}, {"geometry": {"type": "Point", "coordinates": [12.6497564316, 51.8650436401]}, "type": "Feature", "properties": {"name": "Istanbul"}}, {"geometry": {"type": "Point", "coordinates": [13.0534133911, 52.4002113342]}, "type": "Feature", "properties": {"name": "Doener Bistro"}}, {"geometry": {"type": "Point", "coordinates": [8.47214317322, 49.4817810059]}, "type": "Feature", "properties": {"name": "Pascha"}}, {"geometry": {"type": "Point", "coordinates": [12.4501142502, 51.7304801941]}, "type": "Feature", "properties": {"name": "Osmans-Imbis"}}, {"geometry": {"type": "Point", "coordinates": [13.4124097824, 52.5324745178]}, "type": "Feature", "properties": {"name": "Cleopatra"}}, {"geometry": {"type": "Point", "coordinates": [10.8858985901, 49.8936767578]}, "type": "Feature", "properties": {"name": "Oriental Snacks"}}, {"geometry": {"type": "Point", "coordinates": [8.6903553009, 49.3995094299]}, "type": "Feature", "properties": {"name": "Antalya"}}, {"geometry": {"type": "Point", "coordinates": [7.40816307068, 50.4321403503]}, "type": "Feature", "properties": {"name": "Europa Grill"}}, {"geometry": {"type": "Point", "coordinates": [8.72425937653, 48.551525116]}, "type": "Feature", "properties": {"name": "Pamukale"}}, {"geometry": {"type": "Point", "coordinates": [8.6689863205, 50.107624054]}, "type": "Feature", "properties": {"name": "Bayram D\u00f6ner"}}, {"geometry": {"type": "Point", "coordinates": [10.4375591278, 52.437625885]}, "type": "Feature", "properties": {"name": "Imbiss Selda"}}, {"geometry": {"type": "Point", "coordinates": [8.77453231812, 50.2301101685]}, "type": "Feature", "properties": {"name": "CITY Kebap Haus"}}, {"geometry": {"type": "Point", "coordinates": [12.6029462814, 51.867389679]}, "type": "Feature", "properties": {"name": "Der D\u00f6ner"}}, {"geometry": {"type": "Point", "coordinates": [12.4558620453, 51.8825149536]}, "type": "Feature", "properties": {"name": "Alis Oase"}}, {"geometry": {"type": "Point", "coordinates": [12.4596977234, 51.8853569031]}, "type": "Feature", "properties": {"name": "D\u00f6ner Kebap"}}, {"geometry": {"type": "Point", "coordinates": [11.821187973, 52.0822257996]}, "type": "Feature", "properties": {"name": "Kervan"}}, {"geometry": {"type": "Point", "coordinates": [14.4432897568, 51.599319458]}, "type": "Feature", "properties": {"name": "Asia Spizialit\u00e4ten * D\u00f6ner Kebap"}}, {"geometry": {"type": "Point", "coordinates": [13.0038537979, 51.5609855652]}, "type": "Feature", "properties": {"name": "Asia Imbi\u00df"}}, {"geometry": {"type": "Point", "coordinates": [13.7185821533, 51.0767478943]}, "type": "Feature", "properties": {"name": "Trinien"}}, {"geometry": {"type": "Point", "coordinates": [14.3202705383, 51.7604255676]}, "type": "Feature", "properties": {"name": "City Kebap"}}, {"geometry": {"type": "Point", "coordinates": [14.3257694244, 51.310256958]}, "type": "Feature", "properties": {"name": "Bistro Efes"}}, {"geometry": {"type": "Point", "coordinates": [13.560710907, 51.1767539978]}, "type": "Feature", "properties": {"name": "Hong Kong Imbi\u00df"}}, {"geometry": {"type": "Point", "coordinates": [9.08767795563, 51.5121841431]}, "type": "Feature", "properties": {"name": "Ali Babas Doener"}}, {"geometry": {"type": "Point", "coordinates": [9.05016708374, 54.4761390686]}, "type": "Feature", "properties": {"name": "Istanbul D\u00f6ner Kebap"}}, {"geometry": {"type": "Point", "coordinates": [13.1898202896, 52.7279014587]}, "type": "Feature", "properties": {"name": "D\u00f6ner Imbi\u00df"}}, {"geometry": {"type": "Point", "coordinates": [7.8181219101, 50.6635475159]}, "type": "Feature", "properties": {"name": "Restaurant-Pizzeria Troja"}}, {"geometry": {"type": "Point", "coordinates": [11.2259874344, 48.1626014709]}, "type": "Feature", "properties": {"name": "Kara Liman"}}, {"geometry": {"type": "Point", "coordinates": [8.46998977661, 49.4803466797]}, "type": "Feature", "properties": {"name": "D\u00f6ner-Center am Hauptbahnhof"}}, {"geometry": {"type": "Point", "coordinates": [10.0298442841, 53.5882720947]}, "type": "Feature", "properties": {"name": "U-Bahn Barmbek"}}, {"geometry": {"type": "Point", "coordinates": [12.2278766632, 48.0619621277]}, "type": "Feature", "properties": {"name": "pepsi"}}, {"geometry": {"type": "Point", "coordinates": [12.1240177155, 47.8560752869]}, "type": "Feature", "properties": {"name": "excelsior bistrobar"}}, {"geometry": {"type": "Point", "coordinates": [13.9993200302, 54.0498390198]}, "type": "Feature", "properties": {"name": "\u00d6zdemir"}}, {"geometry": {"type": "Point", "coordinates": [9.93070983887, 54.6612281799]}, "type": "Feature", "properties": {"name": "Orient-Grill"}}, {"geometry": {"type": "Point", "coordinates": [6.83501577377, 50.9369850159]}, "type": "Feature", "properties": {"name": "keine Spezielle"}}, {"geometry": {"type": "Point", "coordinates": [9.95489311218, 52.1569213867]}, "type": "Feature", "properties": {"name": "\u00fc. g\u00fcm\u00fcs"}}, {"geometry": {"type": "Point", "coordinates": [6.78620290756, 51.2226905823]}, "type": "Feature", "properties": {"name": "????"}}, {"geometry": {"type": "Point", "coordinates": [8.17255687714, 48.7731323242]}, "type": "Feature", "properties": {"name": "D\u00f6nerbude im real"}}, {"geometry": {"type": "Point", "coordinates": [8.35496807098, 49.6305007935]}, "type": "Feature", "properties": {"name": "Marathon D\u00f6ner"}}, {"geometry": {"type": "Point", "coordinates": [9.55568504333, 52.2072868347]}, "type": "Feature", "properties": {"name": "Euphrat"}}, {"geometry": {"type": "Point", "coordinates": [9.04257488251, 54.0942382812]}, "type": "Feature", "properties": {"name": "Marmaris D\u00f6ner Kebaphaus"}}, {"geometry": {"type": "Point", "coordinates": [9.32731723785, 48.8593444824]}, "type": "Feature", "properties": {"name": "Doener am Bahnhof"}}, {"geometry": {"type": "Point", "coordinates": [6.35507822037, 50.840297699]}, "type": "Feature", "properties": {"name": "Name nicht genau bekannt"}}, {"geometry": {"type": "Point", "coordinates": [9.71125221252, 54.6744194031]}, "type": "Feature", "properties": {"name": "Checkpoint"}}, {"geometry": {"type": "Point", "coordinates": [10.6888847351, 53.6284637451]}, "type": "Feature", "properties": {"name": "Pamukkale"}}, {"geometry": {"type": "Point", "coordinates": [7.46682405472, 52.0463447571]}, "type": "Feature", "properties": {"name": "Pizzeria Europa"}}, {"geometry": {"type": "Point", "coordinates": [9.16950893402, 48.7765541077]}, "type": "Feature", "properties": {"name": "K\u00f6nig Pizza Kebap-Haus"}}, {"geometry": {"type": "Point", "coordinates": [13.2661018372, 52.4151268005]}, "type": "Feature", "properties": {"name": "Efes D\u00f6ner"}}, {"geometry": {"type": "Point", "coordinates": [12.4674510956, 50.8494758606]}, "type": "Feature", "properties": {"name": "Sesam - D\u00f6ner"}}, {"geometry": {"type": "Point", "coordinates": [10.9903430939, 49.4727706909]}, "type": "Feature", "properties": {"name": "Mozaik Imbiss"}}, {"geometry": {"type": "Point", "coordinates": [11.0817899704, 49.4501419067]}, "type": "Feature", "properties": {"name": "Filliz"}}, {"geometry": {"type": "Point", "coordinates": [6.12605714798, 51.7792205811]}, "type": "Feature", "properties": {"name": "Aberndstern"}}, {"geometry": {"type": "Point", "coordinates": [6.15256500244, 51.7957725525]}, "type": "Feature", "properties": {"name": "D\u00f6ner Kebap Botan"}}, {"geometry": {"type": "Point", "coordinates": [6.12800836563, 51.8091583252]}, "type": "Feature", "properties": {"name": "D\u00f6ner Kebap & Pizza Baran"}}, {"geometry": {"type": "Point", "coordinates": [6.13493108749, 51.7840995789]}, "type": "Feature", "properties": {"name": "Kurf\u00fcrstengrill"}}, {"geometry": {"type": "Point", "coordinates": [6.1375041008, 51.7904548645]}, "type": "Feature", "properties": {"name": "Zum Kurf\u00fcrsten"}}, {"geometry": {"type": "Point", "coordinates": [13.2060317993, 48.4523010254]}, "type": "Feature", "properties": {"name": "doener spuber landen 15"}}, {"geometry": {"type": "Point", "coordinates": [5.96782875061, 51.6973991394]}, "type": "Feature", "properties": {"name": "Shalom"}}, {"geometry": {"type": "Point", "coordinates": [10.2412986755, 52.3131065369]}, "type": "Feature", "properties": {"name": "Altin-Kebap"}}, {"geometry": {"type": "Point", "coordinates": [10.3938331604, 52.3203010559]}, "type": "Feature", "properties": {"name": "Saray"}}, {"geometry": {"type": "Point", "coordinates": [10.2499876022, 52.3084411621]}, "type": "Feature", "properties": {"name": "Klaars D\u00f6ner"}}, {"geometry": {"type": "Point", "coordinates": [6.94223022461, 50.9287376404]}, "type": "Feature", "properties": {"name": "Oruc"}}, {"geometry": {"type": "Point", "coordinates": [11.4603919983, 48.2638244629]}, "type": "Feature", "properties": {"name": "1001 Nacht"}}, {"geometry": {"type": "Point", "coordinates": [9.19040489197, 48.8931808472]}, "type": "Feature", "properties": {"name": "Stern Kebab"}}, {"geometry": {"type": "Point", "coordinates": [7.48538303375, 53.309967041]}, "type": "Feature", "properties": {"name": "Bistro Tandour"}}, {"geometry": {"type": "Point", "coordinates": [6.93981790543, 50.9405670166]}, "type": "Feature", "properties": {"name": "Planet Oriental"}}, {"geometry": {"type": "Point", "coordinates": [8.67196273804, 52.1136245728]}, "type": "Feature", "properties": {"name": "Efendi"}}, {"geometry": {"type": "Point", "coordinates": [10.0153684616, 53.5906333923]}, "type": "Feature", "properties": {"name": "onkel sam"}}, {"geometry": {"type": "Point", "coordinates": [13.4150257111, 52.4912147522]}, "type": "Feature", "properties": {"name": "H\u00e4hnchen Grill"}}, {"geometry": {"type": "Point", "coordinates": [6.56687498093, 50.9906806946]}, "type": "Feature", "properties": {"name": "Bedburger Grill"}}, {"geometry": {"type": "Point", "coordinates": [8.95130634308, 53.0062789917]}, "type": "Feature", "properties": {"name": "meiers doenerpalast"}}, {"geometry": {"type": "Point", "coordinates": [9.50635242462, 51.3131561279]}, "type": "Feature", "properties": {"name": "Kebabhaus am Stern"}}, {"geometry": {"type": "Point", "coordinates": [10.094578743, 48.8374786377]}, "type": "Feature", "properties": {"name": "Marmaris-Doener"}}, {"geometry": {"type": "Point", "coordinates": [6.93787717819, 52.0039672852]}, "type": "Feature", "properties": {"name": "Isar"}}, {"geometry": {"type": "Point", "coordinates": [6.90536785126, 51.9865570068]}, "type": "Feature", "properties": {"name": "Nuri"}}, {"geometry": {"type": "Point", "coordinates": [9.98450660706, 53.587272644]}, "type": "Feature", "properties": {"name": "cancan"}}, {"geometry": {"type": "Point", "coordinates": [6.91784286499, 51.9884567261]}, "type": "Feature", "properties": {"name": "Ali Baba"}}, {"geometry": {"type": "Point", "coordinates": [6.96100711823, 50.9363670349]}, "type": "Feature", "properties": {"name": "D\u00f6nerKebab Heumarkt"}}, {"geometry": {"type": "Point", "coordinates": [6.94131803513, 50.929107666]}, "type": "Feature", "properties": {"name": "Bodrum"}}, {"geometry": {"type": "Point", "coordinates": [7.08546304703, 51.1736717224]}, "type": "Feature", "properties": {"name": "Trend Kebap"}}, {"geometry": {"type": "Point", "coordinates": [11.6309309006, 52.133682251]}, "type": "Feature", "properties": {"name": "yildiz"}}, {"geometry": {"type": "Point", "coordinates": [6.88527679443, 51.0206565857]}, "type": "Feature", "properties": {"name": "\u00d6m\u00fcr Palast"}}, {"geometry": {"type": "Point", "coordinates": [13.3429050446, 50.9179267883]}, "type": "Feature", "properties": {"name": "D\u00fcr\u00fcm-D\u00f6ner"}}, {"geometry": {"type": "Point", "coordinates": [8.06632328033, 50.3098754883]}, "type": "Feature", "properties": {"name": "Ciao Arkadas"}}, {"geometry": {"type": "Point", "coordinates": [10.5228796005, 52.2614517212]}, "type": "Feature", "properties": {"name": "Dalyan Grill Restaurant"}}, {"geometry": {"type": "Point", "coordinates": [10.5233020782, 52.2703933716]}, "type": "Feature", "properties": {"name": "Aladin"}}, {"geometry": {"type": "Point", "coordinates": [10.6951961517, 53.9142456055]}, "type": "Feature", "properties": {"name": "Samy`s D\u00f6ner"}}, {"geometry": {"type": "Point", "coordinates": [8.749168396, 50.807308197]}, "type": "Feature", "properties": {"name": "Sofra"}}, {"geometry": {"type": "Point", "coordinates": [10.6906862259, 53.8730049133]}, "type": "Feature", "properties": {"name": "A La Turka"}}, {"geometry": {"type": "Point", "coordinates": [9.72295570374, 52.3724708557]}, "type": "Feature", "properties": {"name": "\u00d6z Urfa Kebap Salonu"}}, {"geometry": {"type": "Point", "coordinates": [10.8723144531, 51.369846344]}, "type": "Feature", "properties": {"name": "??"}}, {"geometry": {"type": "Point", "coordinates": [6.70749998093, 51.4509811401]}, "type": "Feature", "properties": {"name": "Augusta Grill"}}, {"geometry": {"type": "Point", "coordinates": [7.477435112, 51.3564376831]}, "type": "Feature", "properties": {"name": "Ali"}}, {"geometry": {"type": "Point", "coordinates": [7.33729314804, 51.4374732971]}, "type": "Feature", "properties": {"name": "Can"}}, {"geometry": {"type": "Point", "coordinates": [7.47519779205, 51.3567657471]}, "type": "Feature", "properties": {"name": "Ali Baba"}}, {"geometry": {"type": "Point", "coordinates": [7.47519779205, 51.3567657471]}, "type": "Feature", "properties": {"name": "Bodrum D\u00f6nerhaus"}}, {"geometry": {"type": "Point", "coordinates": [7.46576976776, 51.5164489746]}, "type": "Feature", "properties": {"name": "King Kebap"}}, {"geometry": {"type": "Point", "coordinates": [7.46311616898, 51.3623275757]}, "type": "Feature", "properties": {"name": "Haci Baba"}}, {"geometry": {"type": "Point", "coordinates": [7.47519779205, 51.3567657471]}, "type": "Feature", "properties": {"name": "Merhaba 1"}}, {"geometry": {"type": "Point", "coordinates": [7.47170495987, 51.3626556396]}, "type": "Feature", "properties": {"name": "Merhaba 2"}}, {"geometry": {"type": "Point", "coordinates": [7.46311616898, 51.3623275757]}, "type": "Feature", "properties": {"name": "Antalia"}}, {"geometry": {"type": "Point", "coordinates": [7.48272180557, 51.4038162231]}, "type": "Feature", "properties": {"name": "Hacibaba"}}, {"geometry": {"type": "Point", "coordinates": [7.46311616898, 51.3623275757]}, "type": "Feature", "properties": {"name": "Grill 2000"}}, {"geometry": {"type": "Point", "coordinates": [7.47170495987, 51.3626556396]}, "type": "Feature", "properties": {"name": "D\u00f6nerhaus"}}, {"geometry": {"type": "Point", "coordinates": [7.00922012329, 51.4849433899]}, "type": "Feature", "properties": {"name": "Spie\u00dfbude"}}, {"geometry": {"type": "Point", "coordinates": [13.4791126251, 52.512638092]}, "type": "Feature", "properties": {"name": "Maximilian"}}, {"geometry": {"type": "Point", "coordinates": [7.63773584366, 51.9572410583]}, "type": "Feature", "properties": {"name": "Charlotte II Spezial"}}, {"geometry": {"type": "Point", "coordinates": [12.8035736084, 51.1265487671]}, "type": "Feature", "properties": {"name": "Imbis Istambul"}}, {"geometry": {"type": "Point", "coordinates": [8.82013893127, 50.5199928284]}, "type": "Feature", "properties": {"name": "Orient-Grill"}}, {"geometry": {"type": "Point", "coordinates": [12.8768663406, 47.7239227295]}, "type": "Feature", "properties": {"name": "Olympia"}}, {"geometry": {"type": "Point", "coordinates": [8.76169204712, 51.6266899109]}, "type": "Feature", "properties": {"name": "D\u00f6ner H\u00e4nger"}}, {"geometry": {"type": "Point", "coordinates": [12.5345478058, 48.0042648315]}, "type": "Feature", "properties": {"name": "Side"}}, {"geometry": {"type": "Point", "coordinates": [8.20530605316, 50.7416343689]}, "type": "Feature", "properties": {"name": "D\u00f6neria"}}, {"geometry": {"type": "Point", "coordinates": [7.07688808441, 51.4482154846]}, "type": "Feature", "properties": {"name": "Steeler City D\u00f6ner Kebap"}}, {"geometry": {"type": "Point", "coordinates": [8.58275222778, 50.20079422]}, "type": "Feature", "properties": {"name": "D\u00f6ner-Kebab"}}, {"geometry": {"type": "Point", "coordinates": [8.58111667633, 50.2015762329]}, "type": "Feature", "properties": {"name": "D\u00f6ner-Imbis"}}, {"geometry": {"type": "Point", "coordinates": [8.67101573944, 49.4498634338]}, "type": "Feature", "properties": {"name": "Umur\u00b4s D\u00f6ner Kebab Haus"}}, {"geometry": {"type": "Point", "coordinates": [7.14770793915, 51.2623138428]}, "type": "Feature", "properties": {"name": "D\u00f6ner Factory"}}, {"geometry": {"type": "Point", "coordinates": [7.14971923828, 51.2573890686]}, "type": "Feature", "properties": {"name": "DeniZ"}}, {"geometry": {"type": "Point", "coordinates": [7.28393983841, 50.7746124268]}, "type": "Feature", "properties": {"name": "Siegburger D\u00f6ner Haus"}}, {"geometry": {"type": "Point", "coordinates": [11.4415378571, 48.2532806396]}, "type": "Feature", "properties": {"name": "Giggs Imbiss"}}, {"geometry": {"type": "Point", "coordinates": [6.92509412766, 51.5206871033]}, "type": "Feature", "properties": {"name": "D\u00f6ner Paradis"}}, {"geometry": {"type": "Point", "coordinates": [9.90354442596, 51.5444869995]}, "type": "Feature", "properties": {"name": "B\u00fcffe"}}, {"geometry": {"type": "Point", "coordinates": [9.83318710327, 47.6873626709]}, "type": "Feature", "properties": {"name": "\u00dcnal Imbiss"}}, {"geometry": {"type": "Point", "coordinates": [7.45491218567, 51.5511817932]}, "type": "Feature", "properties": {"name": "K.Maras-Grill"}}, {"geometry": {"type": "Point", "coordinates": [13.4219942093, 52.535610199]}, "type": "Feature", "properties": {"name": "PAPA"}}, {"geometry": {"type": "Point", "coordinates": [11.9148721695, 50.3141784668]}, "type": "Feature", "properties": {"name": "Adana-Kebap"}}, {"geometry": {"type": "Point", "coordinates": [8.53506088257, 52.0267715454]}, "type": "Feature", "properties": {"name": "Ada"}}, {"geometry": {"type": "Point", "coordinates": [6.93935918808, 50.9378242493]}, "type": "Feature", "properties": {"name": "D\u00f6ner King"}}, {"geometry": {"type": "Point", "coordinates": [8.93873214722, 50.591255188]}, "type": "Feature", "properties": {"name": "Marmaris Kebaphaus"}}, {"geometry": {"type": "Point", "coordinates": [6.09424591064, 51.0632476807]}, "type": "Feature", "properties": {"name": "Kebap-Haus"}}, {"geometry": {"type": "Point", "coordinates": [8.69093036652, 50.1022071838]}, "type": "Feature", "properties": {"name": "Adana Kebab"}}, {"geometry": {"type": "Point", "coordinates": [8.77728176117, 51.7064743042]}, "type": "Feature", "properties": {"name": "Sultan Grill"}}, {"geometry": {"type": "Point", "coordinates": [9.01088428497, 48.6845359802]}, "type": "Feature", "properties": {"name": "See Kebab"}}, {"geometry": {"type": "Point", "coordinates": [9.6407365799, 47.8066215515]}, "type": "Feature", "properties": {"name": "Satdt Imbiss  Bicer Kebab"}}, {"geometry": {"type": "Point", "coordinates": [9.81616210938, 49.8991889954]}, "type": "Feature", "properties": {"name": "Yilmaz"}}, {"geometry": {"type": "Point", "coordinates": [8.39383125305, 48.9983444214]}, "type": "Feature", "properties": {"name": "Mastar"}}, {"geometry": {"type": "Point", "coordinates": [8.39618968964, 48.9943847656]}, "type": "Feature", "properties": {"name": "imbiss oriental"}}, {"geometry": {"type": "Point", "coordinates": [9.5441532135, 54.5021362305]}, "type": "Feature", "properties": {"name": "Domino Grill"}}, {"geometry": {"type": "Point", "coordinates": [7.63697910309, 51.6634674072]}, "type": "Feature", "properties": {"name": "G\u00fcney Grill"}}, {"geometry": {"type": "Point", "coordinates": [10.2325839996, 50.0446357727]}, "type": "Feature", "properties": {"name": "Haci Baba D\u00f6ner Imbiss"}}, {"geometry": {"type": "Point", "coordinates": [6.63688611984, 49.4434204102]}, "type": "Feature", "properties": {"name": "Mustafa-Kebab"}}, {"geometry": {"type": "Point", "coordinates": [13.4513263702, 52.5091209412]}, "type": "Feature", "properties": {"name": "Rum\u00e4nenwalters Alibaba 1001"}}, {"geometry": {"type": "Point", "coordinates": [8.7044210434, 49.8931274414]}, "type": "Feature", "properties": {"name": "Taxim"}}, {"geometry": {"type": "Point", "coordinates": [7.84696578979, 48.1220092773]}, "type": "Feature", "properties": {"name": "C\u00edty D\u00f6ner"}}, {"geometry": {"type": "Point", "coordinates": [6.64785194397, 49.7533760071]}, "type": "Feature", "properties": {"name": "Torros-Grill"}}, {"geometry": {"type": "Point", "coordinates": [6.93666887283, 50.9350967407]}, "type": "Feature", "properties": {"name": "Murat Imbiss"}}, {"geometry": {"type": "Point", "coordinates": [7.88044881821, 51.7603111267]}, "type": "Feature", "properties": {"name": "Danizmas"}}, {"geometry": {"type": "Point", "coordinates": [8.56602478027, 49.8599357605]}, "type": "Feature", "properties": {"name": "Haso Doener"}}, {"geometry": {"type": "Point", "coordinates": [7.78356122971, 51.9847450256]}, "type": "Feature", "properties": {"name": "Everest"}}, {"geometry": {"type": "Point", "coordinates": [7.83612918854, 48.1247825623]}, "type": "Feature", "properties": {"name": "City Kebap"}}, {"geometry": {"type": "Point", "coordinates": [9.83885192871, 54.4736595154]}, "type": "Feature", "properties": {"name": "Imbiss am Jungfernstieg"}}, {"geometry": {"type": "Point", "coordinates": [10.1305799484, 54.3561210632]}, "type": "Feature", "properties": {"name": "Doener Star"}}, {"geometry": {"type": "Point", "coordinates": [7.43508195877, 51.3398666382]}, "type": "Feature", "properties": {"name": "Bei Ali"}}, {"geometry": {"type": "Point", "coordinates": [9.75910568237, 52.3618392944]}, "type": "Feature", "properties": {"name": "D\u00f6ner 19"}}, {"geometry": {"type": "Point", "coordinates": [11.5870113373, 48.1616897583]}, "type": "Feature", "properties": {"name": "Mama s Kebap Haus"}}, {"geometry": {"type": "Point", "coordinates": [6.27668809891, 51.1398620605]}, "type": "Feature", "properties": {"name": "Dalyan D\u00f6ner-Kebap"}}, {"geometry": {"type": "Point", "coordinates": [8.56419467926, 49.4663352966]}, "type": "Feature", "properties": {"name": "Bella Pizza(D\u00f6ner Imbiss)"}}, {"geometry": {"type": "Point", "coordinates": [12.1250896454, 47.8572044373]}, "type": "Feature", "properties": {"name": "Murat\u00b4s Imbiss"}}, {"geometry": {"type": "Point", "coordinates": [9.92860603333, 49.7921066284]}, "type": "Feature", "properties": {"name": "Tigris"}}, {"geometry": {"type": "Point", "coordinates": [6.95974588394, 50.9214706421]}, "type": "Feature", "properties": {"name": "Seyfi Baba"}}, {"geometry": {"type": "Point", "coordinates": [6.95998239517, 50.9210777283]}, "type": "Feature", "properties": {"name": "Severinstor Grill"}}, {"geometry": {"type": "Point", "coordinates": [11.0921154022, 49.4421882629]}, "type": "Feature", "properties": {"name": "D\u00fcr\u00fcm D\u00f6ner"}}, {"geometry": {"type": "Point", "coordinates": [6.2949180603, 51.1812477112]}, "type": "Feature", "properties": {"name": "Yasmin D\u00f6ner"}}, {"geometry": {"type": "Point", "coordinates": [6.2119679451, 50.8676567078]}, "type": "Feature", "properties": {"name": "Esin-D\u00f6ner"}}, {"geometry": {"type": "Point", "coordinates": [11.0578546524, 49.7276763916]}, "type": "Feature", "properties": {"name": "SERHAT iMBiSS"}}, {"geometry": {"type": "Point", "coordinates": [6.57296705246, 49.6992874146]}, "type": "Feature", "properties": {"name": "Europa Bistro"}}, {"geometry": {"type": "Point", "coordinates": [8.19300079346, 52.5210800171]}, "type": "Feature", "properties": {"name": "City Grill"}}, {"geometry": {"type": "Point", "coordinates": [6.80884313583, 49.2220230103]}, "type": "Feature", "properties": {"name": "Dursunbey Kebab"}}, {"geometry": {"type": "Point", "coordinates": [6.62650108337, 51.3190422058]}, "type": "Feature", "properties": {"name": "\u00dcsk\u00fcdr\u00e4m\u00e4"}}, {"geometry": {"type": "Point", "coordinates": [12.132188797, 49.0265579224]}, "type": "Feature", "properties": {"name": "Kurtl (im REAL-Markt)"}}, {"geometry": {"type": "Point", "coordinates": [9.73361587524, 52.374912262]}, "type": "Feature", "properties": {"name": "K\u00f6back"}}, {"geometry": {"type": "Point", "coordinates": [6.93750810623, 50.9383544922]}, "type": "Feature", "properties": {"name": "Sahara (Arabischer Imbiss!)"}}, {"geometry": {"type": "Point", "coordinates": [6.93750810623, 50.9383544922]}, "type": "Feature", "properties": {"name": "Bol Kepce"}}, {"geometry": {"type": "Point", "coordinates": [6.94898080826, 50.9360389709]}, "type": "Feature", "properties": {"name": "Mediterrano"}}, {"geometry": {"type": "Point", "coordinates": [9.46890068054, 52.4264640808]}, "type": "Feature", "properties": {"name": "Kalender\u00b4s Grillstube"}}, {"geometry": {"type": "Point", "coordinates": [6.09920597076, 50.9264945984]}, "type": "Feature", "properties": {"name": "D\u00f6nmez 2000"}}, {"geometry": {"type": "Point", "coordinates": [8.25660228729, 49.3632850647]}, "type": "Feature", "properties": {"name": "Bugday D\u00f6ner"}}, {"geometry": {"type": "Point", "coordinates": [8.50580024719, 48.9127197266]}, "type": "Feature", "properties": {"name": "Pasagrill"}}, {"geometry": {"type": "Point", "coordinates": [13.2236385345, 48.5473518372]}, "type": "Feature", "properties": {"name": "ardana"}}, {"geometry": {"type": "Point", "coordinates": [8.10731887817, 53.520072937]}, "type": "Feature", "properties": {"name": "Ali Baba"}}, {"geometry": {"type": "Point", "coordinates": [10.6913146973, 53.6152801514]}, "type": "Feature", "properties": {"name": "Marmaris"}}, {"geometry": {"type": "Point", "coordinates": [10.46571064, 51.2097969055]}, "type": "Feature", "properties": {"name": "AMED GRILLHAUS"}}, {"geometry": {"type": "Point", "coordinates": [6.61123991013, 51.658203125]}, "type": "Feature", "properties": {"name": "Kornmarkt D\u00f6ner"}}, {"geometry": {"type": "Point", "coordinates": [6.84638881683, 51.1996498108]}, "type": "Feature", "properties": {"name": "Vennhauser Grill Kebap Haus"}}, {"geometry": {"type": "Point", "coordinates": [8.75649356842, 52.0754165649]}, "type": "Feature", "properties": {"name": "URAL  GRILL"}}, {"geometry": {"type": "Point", "coordinates": [8.11545658112, 53.5680885315]}, "type": "Feature", "properties": {"name": "Akin"}}, {"geometry": {"type": "Point", "coordinates": [8.46757411957, 49.4911613464]}, "type": "Feature", "properties": {"name": "TADIM Kebap Haus"}}, {"geometry": {"type": "Point", "coordinates": [11.5611858368, 48.139125824]}, "type": "Feature", "properties": {"name": "Ali Baba"}}, {"geometry": {"type": "Point", "coordinates": [12.3778781891, 51.3325080872]}, "type": "Feature", "properties": {"name": "D\u00f6ner Imbi\u00df"}}, {"geometry": {"type": "Point", "coordinates": [12.3733062744, 51.3373565674]}, "type": "Feature", "properties": {"name": "Aladin Kebap"}}, {"geometry": {"type": "Point", "coordinates": [12.3756980896, 51.338394165]}, "type": "Feature", "properties": {"name": "Asia Supermarkt"}}, {"geometry": {"type": "Point", "coordinates": [8.10774612427, 53.5166244507]}, "type": "Feature", "properties": {"name": "Merhaba"}}, {"geometry": {"type": "Point", "coordinates": [10.594420433, 52.6090431213]}, "type": "Feature", "properties": {"name": "D\u00f6nertreff Wahrenholz"}}, {"geometry": {"type": "Point", "coordinates": [11.5764455795, 48.135559082]}, "type": "Feature", "properties": {"name": "Schmankerl vom Grill"}}, {"geometry": {"type": "Point", "coordinates": [7.40233421326, 50.4347229004]}, "type": "Feature", "properties": {"name": "adena"}}, {"geometry": {"type": "Point", "coordinates": [10.1287851334, 54.3190574646]}, "type": "Feature", "properties": {"name": "King D\u00f6ner"}}, {"geometry": {"type": "Point", "coordinates": [7.0041270256, 50.9648094177]}, "type": "Feature", "properties": {"name": "Altstadt Grill Imbiss"}}, {"geometry": {"type": "Point", "coordinates": [9.17936420441, 48.7823066711]}, "type": "Feature", "properties": {"name": "D\u00f6ner Kebab Haus"}}, {"geometry": {"type": "Point", "coordinates": [11.5532722473, 48.1375083923]}, "type": "Feature", "properties": {"name": "Saray - Bistro & Spezialit\u00e4ten"}}, {"geometry": {"type": "Point", "coordinates": [12.1491641998, 48.2727775574]}, "type": "Feature", "properties": {"name": "Kebaphaus Acar Seyho"}}, {"geometry": {"type": "Point", "coordinates": [11.2508897781, 50.1374473572]}, "type": "Feature", "properties": {"name": "Peker D\u00f6ner"}}, {"geometry": {"type": "Point", "coordinates": [11.5423402786, 48.1377182007]}, "type": "Feature", "properties": {"name": "Karadeniz D\u00f6ner Kebap"}}, {"geometry": {"type": "Point", "coordinates": [11.5399265289, 48.1342010498]}, "type": "Feature", "properties": {"name": "Midi-Buffet"}}, {"geometry": {"type": "Point", "coordinates": [8.96802616119, 47.7371482849]}, "type": "Feature", "properties": {"name": "Aktas Kebap"}}, {"geometry": {"type": "Point", "coordinates": [8.97120475769, 47.7386932373]}, "type": "Feature", "properties": {"name": "Buffet"}}, {"geometry": {"type": "Point", "coordinates": [8.81999969482, 47.75]}, "type": "Feature", "properties": {"name": "Schwarzmeer D\u00f6ner"}}, {"geometry": {"type": "Point", "coordinates": [10.171787262, 54.3969841003]}, "type": "Feature", "properties": {"name": "Erdal"}}, {"geometry": {"type": "Point", "coordinates": [13.4321193695, 52.5363731384]}, "type": "Feature", "properties": {"name": "Ali Baba und die 40 H\u00fchner"}}, {"geometry": {"type": "Point", "coordinates": [11.5623426437, 48.1393585205]}, "type": "Feature", "properties": {"name": "Firat"}}, {"geometry": {"type": "Point", "coordinates": [8.84070777893, 47.7617073059]}, "type": "Feature", "properties": {"name": "Istanbul Kebap"}}, {"geometry": {"type": "Point", "coordinates": [8.83801174164, 47.7579650879]}, "type": "Feature", "properties": {"name": "Imbiss anatolia"}}, {"geometry": {"type": "Point", "coordinates": [8.8375711441, 47.7616004944]}, "type": "Feature", "properties": {"name": "Munzur Kebap"}}, {"geometry": {"type": "Point", "coordinates": [8.77465629578, 47.7350845337]}, "type": "Feature", "properties": {"name": "Marmaris"}}, {"geometry": {"type": "Point", "coordinates": [10.1358604431, 54.3226852417]}, "type": "Feature", "properties": {"name": "D\u00f6ner Olympia 2000"}}, {"geometry": {"type": "Point", "coordinates": [10.1409349442, 54.3228492737]}, "type": "Feature", "properties": {"name": "D\u00f6ner Saftan"}}, {"geometry": {"type": "Point", "coordinates": [14.1140432358, 52.2015075684]}, "type": "Feature", "properties": {"name": "China-Imbi\u00df"}}, {"geometry": {"type": "Point", "coordinates": [10.1186733246, 54.3323707581]}, "type": "Feature", "properties": {"name": "Muharrems D\u00f6ner Treff"}}, {"geometry": {"type": "Point", "coordinates": [6.09028720856, 50.7761764526]}, "type": "Feature", "properties": {"name": "Atlas Grill"}}, {"geometry": {"type": "Point", "coordinates": [8.21085929871, 47.6226997375]}, "type": "Feature", "properties": {"name": "Picknick"}}, {"geometry": {"type": "Point", "coordinates": [9.3890581131, 54.5564079285]}, "type": "Feature", "properties": {"name": "D\u00f6ner Treff"}}, {"geometry": {"type": "Point", "coordinates": [9.3629322052, 49.5677337646]}, "type": "Feature", "properties": {"name": "Imbiss Jessi"}}, {"geometry": {"type": "Point", "coordinates": [13.4156866074, 52.5404205322]}, "type": "Feature", "properties": {"name": "KAHRAMAN D\u00f6ner Produktion"}}, {"geometry": {"type": "Point", "coordinates": [8.83798122406, 47.758266449]}, "type": "Feature", "properties": {"name": "K\u00f6nig D\u00f6ner & Pizza"}}, {"geometry": {"type": "Point", "coordinates": [6.58337211609, 50.9272727966]}, "type": "Feature", "properties": {"name": "D\u00f6ner Eck"}}, {"geometry": {"type": "Point", "coordinates": [6.03864955902, 50.6227989197]}, "type": "Feature", "properties": {"name": "Imbiss Istanbul"}}, {"geometry": {"type": "Point", "coordinates": [9.25505542755, 52.1698493958]}, "type": "Feature", "properties": {"name": "Istanbul Doener Kebap"}}, {"geometry": {"type": "Point", "coordinates": [8.69100379944, 48.4442710876]}, "type": "Feature", "properties": {"name": "Stern Kebab"}}, {"geometry": {"type": "Point", "coordinates": [8.6887178421, 48.4437026978]}, "type": "Feature", "properties": {"name": "Snack House"}}, {"geometry": {"type": "Point", "coordinates": [8.41129112244, 48.4608840942]}, "type": "Feature", "properties": {"name": "S\u00fcdwest-Kebap"}}, {"geometry": {"type": "Point", "coordinates": [7.21834516525, 51.2711257935]}, "type": "Feature", "properties": {"name": "NERO`S Kebaphaus"}}, {"geometry": {"type": "Point", "coordinates": [7.07239580154, 50.8888168335]}, "type": "Feature", "properties": {"name": "Bonner Grill"}}, {"geometry": {"type": "Point", "coordinates": [6.96036720276, 50.9185638428]}, "type": "Feature", "properties": {"name": "Happy D\u00ef\u00bf\u00bdner"}}, {"geometry": {"type": "Point", "coordinates": [6.93767023087, 50.9403800964]}, "type": "Feature", "properties": {"name": "Anatolien Pizzeria"}}, {"geometry": {"type": "Point", "coordinates": [13.737446785, 51.0347518921]}, "type": "Feature", "properties": {"name": "Pascha D\u00f6ner"}}, {"geometry": {"type": "Point", "coordinates": [11.602935791, 48.1946907043]}, "type": "Feature", "properties": {"name": "Imbiss Oase"}}, {"geometry": {"type": "Point", "coordinates": [12.3364086151, 51.5237579346]}, "type": "Feature", "properties": {"name": "Zum R\u00f6sslein"}}, {"geometry": {"type": "Point", "coordinates": [6.75333976746, 51.4159431458]}, "type": "Feature", "properties": {"name": "dadaslar"}}, {"geometry": {"type": "Point", "coordinates": [7.94507598877, 52.6704750061]}, "type": "Feature", "properties": {"name": "Neustadt D\u00f6ner"}}, {"geometry": {"type": "Point", "coordinates": [6.65966081619, 51.4011039734]}, "type": "Feature", "properties": {"name": "Istanbul grill"}}, {"geometry": {"type": "Point", "coordinates": [13.7489919662, 51.0716323853]}, "type": "Feature", "properties": {"name": "\u00d6z Nemrut"}}, {"geometry": {"type": "Point", "coordinates": [13.7350845337, 51.0435523987]}, "type": "Feature", "properties": {"name": "D\u00f6nerbude an der Treppe"}}, {"geometry": {"type": "Point", "coordinates": [13.7571697235, 51.0780525208]}, "type": "Feature", "properties": {"name": "Inter Kebap"}}, {"geometry": {"type": "Point", "coordinates": [13.7350845337, 51.0435523987]}, "type": "Feature", "properties": {"name": "Sachsen-D\u00f6ner"}}, {"geometry": {"type": "Point", "coordinates": [13.7289733887, 51.0403442383]}, "type": "Feature", "properties": {"name": "\u00d6z Nemrut"}}, {"geometry": {"type": "Point", "coordinates": [9.37815475464, 51.7740974426]}, "type": "Feature", "properties": {"name": "Efes"}}, {"geometry": {"type": "Point", "coordinates": [6.7067861557, 51.4200210571]}, "type": "Feature", "properties": {"name": "bodrum grill"}}, {"geometry": {"type": "Point", "coordinates": [10.9889211655, 49.4753952026]}, "type": "Feature", "properties": {"name": "Orient"}}, {"geometry": {"type": "Point", "coordinates": [10.1350488663, 53.5726547241]}, "type": "Feature", "properties": {"name": "MY D\u00d6NER"}}, {"geometry": {"type": "Point", "coordinates": [11.5334730148, 48.1281852722]}, "type": "Feature", "properties": {"name": "D\u00f6ner Eck"}}, {"geometry": {"type": "Point", "coordinates": [13.3287677765, 52.6282234192]}, "type": "Feature", "properties": {"name": "yorkstrassend\u00f6ner"}}, {"geometry": {"type": "Point", "coordinates": [13.3610515594, 52.493927002]}, "type": "Feature", "properties": {"name": "pascha grill 6"}}, {"geometry": {"type": "Point", "coordinates": [12.3022966385, 51.8180465698]}, "type": "Feature", "properties": {"name": "Marmaris"}}, {"geometry": {"type": "Point", "coordinates": [7.01653385162, 51.4264526367]}, "type": "Feature", "properties": {"name": "Ali Baba"}}, {"geometry": {"type": "Point", "coordinates": [12.6532974243, 51.873008728]}, "type": "Feature", "properties": {"name": "Imbissbude"}}, {"geometry": {"type": "Point", "coordinates": [7.22034692764, 51.4797668457]}, "type": "Feature", "properties": {"name": "D\u00f6nerecke"}}, {"geometry": {"type": "Point", "coordinates": [13.3610973358, 52.4945030212]}, "type": "Feature", "properties": {"name": "yilmaz imbiss und grill"}}, {"geometry": {"type": "Point", "coordinates": [10.126991272, 48.4295120239]}, "type": "Feature", "properties": {"name": "Dost Kebab"}}, {"geometry": {"type": "Point", "coordinates": [6.75672912598, 51.4023551941]}, "type": "Feature", "properties": {"name": "Aksas D\u00f6ner"}}, {"geometry": {"type": "Point", "coordinates": [6.32451486588, 51.5178222656]}, "type": "Feature", "properties": {"name": "Istanbul-D\u00f6ner"}}, {"geometry": {"type": "Point", "coordinates": [13.5532121658, 52.5090713501]}, "type": "Feature", "properties": {"name": "Elmas"}}, {"geometry": {"type": "Point", "coordinates": [7.75869512558, 49.4436912537]}, "type": "Feature", "properties": {"name": "Efes Kebab"}}, {"geometry": {"type": "Point", "coordinates": [7.6117272377, 51.9696578979]}, "type": "Feature", "properties": {"name": "Euro-Grill"}}, {"geometry": {"type": "Point", "coordinates": [10.900437355, 48.3327903748]}, "type": "Feature", "properties": {"name": "Presto Pizza"}}, {"geometry": {"type": "Point", "coordinates": [7.61208295822, 51.9522285461]}, "type": "Feature", "properties": {"name": "Scharnhorst-Grill"}}, {"geometry": {"type": "Point", "coordinates": [6.70611190796, 51.388092041]}, "type": "Feature", "properties": {"name": "D\u00f6ner Kebap"}}, {"geometry": {"type": "Point", "coordinates": [8.48714256287, 49.4528884888]}, "type": "Feature", "properties": {"name": "Big D\u00f6ner"}}, {"geometry": {"type": "Point", "coordinates": [7.07821512222, 51.4289131165]}, "type": "Feature", "properties": {"name": "Millennium grill"}}, {"geometry": {"type": "Point", "coordinates": [6.76312589645, 51.4019737244]}, "type": "Feature", "properties": {"name": "Chicken-D\u00f6ner"}}, {"geometry": {"type": "Point", "coordinates": [8.41429805756, 48.4629364014]}, "type": "Feature", "properties": {"name": "Quick Snack"}}, {"geometry": {"type": "Point", "coordinates": [8.16797733307, 49.4640464783]}, "type": "Feature", "properties": {"name": "Kaptan-D\u00f6ner"}}, {"geometry": {"type": "Point", "coordinates": [13.495850563, 52.5059738159]}, "type": "Feature", "properties": {"name": "Maximilian\u00b4s"}}, {"geometry": {"type": "Point", "coordinates": [7.45525121689, 50.4168548584]}, "type": "Feature", "properties": {"name": "Amigo Arkadas Grill"}}, {"geometry": {"type": "Point", "coordinates": [9.02678394318, 50.1437530518]}, "type": "Feature", "properties": {"name": "korkmaz"}}, {"geometry": {"type": "Point", "coordinates": [11.5973272324, 48.1264572144]}, "type": "Feature", "properties": {"name": "Can Kardesler Imbiss"}}, {"geometry": {"type": "Point", "coordinates": [7.06005811691, 50.9360198975]}, "type": "Feature", "properties": {"name": "Alis Grill & Pizzeria"}}, {"geometry": {"type": "Point", "coordinates": [10.1739559174, 54.2947731018]}, "type": "Feature", "properties": {"name": "Efes Grill"}}, {"geometry": {"type": "Point", "coordinates": [8.52714538574, 49.4340820312]}, "type": "Feature", "properties": {"name": "Karadeniz D\u00f6ner"}}, {"geometry": {"type": "Point", "coordinates": [12.5873193741, 51.5912017822]}, "type": "Feature", "properties": {"name": "Nhuy 2"}}, {"geometry": {"type": "Point", "coordinates": [7.58978700638, 49.6514778137]}, "type": "Feature", "properties": {"name": "Antalya D\u00f6ner Kebab"}}, {"geometry": {"type": "Point", "coordinates": [6.96106910706, 50.9360656738]}, "type": "Feature", "properties": {"name": "Euro D\u00f6ner"}}, {"geometry": {"type": "Point", "coordinates": [6.09677791595, 50.8673706055]}, "type": "Feature", "properties": {"name": "D\u00f6nmez II"}}, {"geometry": {"type": "Point", "coordinates": [7.13206291199, 51.2595481873]}, "type": "Feature", "properties": {"name": "Antalya Kebab Haus"}}, {"geometry": {"type": "Point", "coordinates": [7.34454107285, 51.3209342957]}, "type": "Feature", "properties": {"name": "Ali Baba Grill"}}, {"geometry": {"type": "Point", "coordinates": [13.3378515244, 52.526599884]}, "type": "Feature", "properties": {"name": "Turmbeisser"}}, {"geometry": {"type": "Point", "coordinates": [6.9565820694, 50.9469184875]}, "type": "Feature", "properties": {"name": "DENIZ"}}, {"geometry": {"type": "Point", "coordinates": [12.2905111313, 51.3191642761]}, "type": "Feature", "properties": {"name": "Levante"}}, {"geometry": {"type": "Point", "coordinates": [14.6633052826, 51.0956687927]}, "type": "Feature", "properties": {"name": "Arena"}}, {"geometry": {"type": "Point", "coordinates": [29.0232753754, 41.0715522766]}, "type": "Feature", "properties": {"name": "\u00c0chum Biktas"}}, {"geometry": {"type": "Point", "coordinates": [8.37627029419, 52.4663619995]}, "type": "Feature", "properties": {"name": "g\u00f6rens doener bude"}}, {"geometry": {"type": "Point", "coordinates": [9.59863471985, 52.3150939941]}, "type": "Feature", "properties": {"name": "D\u00f6ner-Grill"}}, {"geometry": {"type": "Point", "coordinates": [12.3863115311, 51.2951774597]}, "type": "Feature", "properties": {"name": "Doener Imbis Alaksa"}}, {"geometry": {"type": "Point", "coordinates": [8.49278736115, 49.4542579651]}, "type": "Feature", "properties": {"name": "Kaya"}}, {"geometry": {"type": "Point", "coordinates": [14.6297149658, 51.505771637]}, "type": "Feature", "properties": {"name": "Alis Bistro"}}, {"geometry": {"type": "Point", "coordinates": [12.0221128464, 51.0417556763]}, "type": "Feature", "properties": {"name": "Orient Bistro"}}, {"geometry": {"type": "Point", "coordinates": [11.5916051865, 50.9285736084]}, "type": "Feature", "properties": {"name": "Pizza King"}}, {"geometry": {"type": "Point", "coordinates": [12.0820388794, 54.1766815186]}, "type": "Feature", "properties": {"name": "Mr. Kebab"}}, {"geometry": {"type": "Point", "coordinates": [9.85279273987, 48.8090248108]}, "type": "Feature", "properties": {"name": "D\u00f6ner Mutlangen"}}, {"geometry": {"type": "Point", "coordinates": [9.79424571991, 48.8013725281]}, "type": "Feature", "properties": {"name": "Ali Baba"}}, {"geometry": {"type": "Point", "coordinates": [9.65236663818, 51.4184494019]}, "type": "Feature", "properties": {"name": "Pelitli"}}, {"geometry": {"type": "Point", "coordinates": [10.929274559, 48.3635978699]}, "type": "Feature", "properties": {"name": "Imam  im REAL-MARKT"}}, {"geometry": {"type": "Point", "coordinates": [12.8045949936, 52.9243507385]}, "type": "Feature", "properties": {"name": "Urfa Imbiss"}}, {"geometry": {"type": "Point", "coordinates": [7.63987112045, 51.2117271423]}, "type": "Feature", "properties": {"name": "Masallah"}}, {"geometry": {"type": "Point", "coordinates": [12.3245811462, 51.3411216736]}, "type": "Feature", "properties": {"name": "alanya"}}, {"geometry": {"type": "Point", "coordinates": [9.35533332825, 52.1042480469]}, "type": "Feature", "properties": {"name": "D\u00f6nermann"}}, {"geometry": {"type": "Point", "coordinates": [6.86289596558, 51.4810600281]}, "type": "Feature", "properties": {"name": "uni kebap haus"}}, {"geometry": {"type": "Point", "coordinates": [7.22086811066, 51.4815788269]}, "type": "Feature", "properties": {"name": "Kohlen K\u00f6nig Gastst\u00e4tte"}}, {"geometry": {"type": "Point", "coordinates": [7.21743011475, 51.5449256897]}, "type": "Feature", "properties": {"name": "Best D\u00f6ner"}}, {"geometry": {"type": "Point", "coordinates": [12.6692609787, 53.5212402344]}, "type": "Feature", "properties": {"name": "D\u00f6ner Ali"}}, {"geometry": {"type": "Point", "coordinates": [6.71834897995, 51.4083633423]}, "type": "Feature", "properties": {"name": "g\u00fcnes grill"}}, {"geometry": {"type": "Point", "coordinates": [9.6744556427, 50.5476341248]}, "type": "Feature", "properties": {"name": "Basdemir\u00b4s Kebaphaus"}}, {"geometry": {"type": "Point", "coordinates": [11.7886867523, 50.1915130615]}, "type": "Feature", "properties": {"name": "D\u00f6ner Kebap Haus"}}, {"geometry": {"type": "Point", "coordinates": [9.35792922974, 50.6098670959]}, "type": "Feature", "properties": {"name": "Garten-Eden"}}, {"geometry": {"type": "Point", "coordinates": [8.55288791656, 50.1058197021]}, "type": "Feature", "properties": {"name": "Mir D\u00f6ner"}}, {"geometry": {"type": "Point", "coordinates": [7.46722602844, 53.1697883606]}, "type": "Feature", "properties": {"name": "Rana"}}, {"geometry": {"type": "Point", "coordinates": [7.44190216064, 53.2277908325]}, "type": "Feature", "properties": {"name": "D\u00f6npi - D\u00f6ner und Pidehaus"}}, {"geometry": {"type": "Point", "coordinates": [7.46250581741, 53.231502533]}, "type": "Feature", "properties": {"name": "Giresun"}}, {"geometry": {"type": "Point", "coordinates": [7.35365819931, 53.1663246155]}, "type": "Feature", "properties": {"name": "Ciwano"}}, {"geometry": {"type": "Point", "coordinates": [7.45433712006, 53.1661300659]}, "type": "Feature", "properties": {"name": "Albela"}}, {"geometry": {"type": "Point", "coordinates": [13.7506504059, 51.0661849976]}, "type": "Feature", "properties": {"name": "Babos"}}, {"geometry": {"type": "Point", "coordinates": [13.3299484253, 52.5035934448]}, "type": "Feature", "properties": {"name": "Efendi D\u00f6ner"}}, {"geometry": {"type": "Point", "coordinates": [7.45725393295, 53.1069335938]}, "type": "Feature", "properties": {"name": "Alyssar"}}, {"geometry": {"type": "Point", "coordinates": [13.3855085373, 52.4656486511]}, "type": "Feature", "properties": {"name": "Balli D\u00f6ner"}}, {"geometry": {"type": "Point", "coordinates": [7.46077394485, 53.2407455444]}, "type": "Feature", "properties": {"name": "Botan (3) im Multi-Markt"}}, {"geometry": {"type": "Point", "coordinates": [7.45562601089, 53.2857246399]}, "type": "Feature", "properties": {"name": "Rana"}}, {"geometry": {"type": "Point", "coordinates": [9.79368209839, 48.8010482788]}, "type": "Feature", "properties": {"name": "Alis D\u00f6ner"}}, {"geometry": {"type": "Point", "coordinates": [8.36925315857, 49.0112991333]}, "type": "Feature", "properties": {"name": "Kaiser Grill"}}, {"geometry": {"type": "Point", "coordinates": [13.7516517639, 51.0669364929]}, "type": "Feature", "properties": {"name": "ARARAT TANIMAMIS"}}, {"geometry": {"type": "Point", "coordinates": [6.96100711823, 50.9363670349]}, "type": "Feature", "properties": {"name": "City-Grill"}}, {"geometry": {"type": "Point", "coordinates": [7.31571578979, 52.5222167969]}, "type": "Feature", "properties": {"name": "Troja"}}, {"geometry": {"type": "Point", "coordinates": [8.07814025879, 52.284942627]}, "type": "Feature", "properties": {"name": "MAYDANOZ"}}, {"geometry": {"type": "Point", "coordinates": [7.65210199356, 51.5979194641]}, "type": "Feature", "properties": {"name": "Euro - D\u00f6ner"}}, {"geometry": {"type": "Point", "coordinates": [14.2383203506, 52.1658058167]}, "type": "Feature", "properties": {"name": "Mahmut D\u00f6ner"}}, {"geometry": {"type": "Point", "coordinates": [6.26918315887, 51.4490852356]}, "type": "Feature", "properties": {"name": "Irgat2"}}, {"geometry": {"type": "Point", "coordinates": [9.52538490295, 48.6223335266]}, "type": "Feature", "properties": {"name": "G\u00fcl"}}, {"geometry": {"type": "Point", "coordinates": [8.74029636383, 49.4856796265]}, "type": "Feature", "properties": {"name": "\u00dcmurs D\u00f6ner haus"}}, {"geometry": {"type": "Point", "coordinates": [9.65143013, 51.4156494141]}, "type": "Feature", "properties": {"name": "Bosporus Grillstube"}}, {"geometry": {"type": "Point", "coordinates": [9.65305995941, 51.4161758423]}, "type": "Feature", "properties": {"name": "Pammukale"}}, {"geometry": {"type": "Point", "coordinates": [7.14142179489, 51.4799079895]}, "type": "Feature", "properties": {"name": "Meister D\u00f6ner"}}, {"geometry": {"type": "Point", "coordinates": [8.05319309235, 52.2672729492]}, "type": "Feature", "properties": {"name": "Iskender"}}, {"geometry": {"type": "Point", "coordinates": [7.8302321434, 51.7023200989]}, "type": "Feature", "properties": {"name": "Danizmas Erol Imbi\u00df"}}, {"geometry": {"type": "Point", "coordinates": [6.28687095642, 50.5649757385]}, "type": "Feature", "properties": {"name": "Eifeler Kebap Haus"}}, {"geometry": {"type": "Point", "coordinates": [12.0401754379, 49.2070045471]}, "type": "Feature", "properties": {"name": "Pizza und D\u00f6ner"}}, {"geometry": {"type": "Point", "coordinates": [7.09634399414, 50.7326698303]}, "type": "Feature", "properties": {"name": "Grill Station"}}, {"geometry": {"type": "Point", "coordinates": [13.4885549545, 52.5420455933]}, "type": "Feature", "properties": {"name": "Konrad D\u00f6n"}}, {"geometry": {"type": "Point", "coordinates": [6.98093223572, 51.6684303284]}, "type": "Feature", "properties": {"name": "Yasemin"}}, {"geometry": {"type": "Point", "coordinates": [9.33848571777, 48.6284065247]}, "type": "Feature", "properties": {"name": "D\u00f6ner Insel"}}, {"geometry": {"type": "Point", "coordinates": [6.62491512299, 51.1309013367]}, "type": "Feature", "properties": {"name": "Cem\u00b4s Kebap-Haus am Bahnhof"}}, {"geometry": {"type": "Point", "coordinates": [6.72142887115, 51.4090652466]}, "type": "Feature", "properties": {"name": "Kral"}}, {"geometry": {"type": "Point", "coordinates": [13.470582962, 51.1602096558]}, "type": "Feature", "properties": {"name": "Kebaphaus"}}, {"geometry": {"type": "Point", "coordinates": [7.33289813995, 51.4381828308]}, "type": "Feature", "properties": {"name": "Anadolou"}}, {"geometry": {"type": "Point", "coordinates": [13.410777092, 52.5215415955]}, "type": "Feature", "properties": {"name": "Aga Kebap"}}, {"geometry": {"type": "Point", "coordinates": [11.9811410904, 51.7510452271]}, "type": "Feature", "properties": {"name": "Ali Baba"}}, {"geometry": {"type": "Point", "coordinates": [11.6939697266, 52.1324577332]}, "type": "Feature", "properties": {"name": "K\u00f6nigs D\u00f6ner"}}, {"geometry": {"type": "Point", "coordinates": [13.1614999771, 50.6485176086]}, "type": "Feature", "properties": {"name": "ROSTO"}}, {"geometry": {"type": "Point", "coordinates": [13.1571340561, 50.6551818848]}, "type": "Feature", "properties": {"name": "D\u00dcR\u00dcM"}}, {"geometry": {"type": "Point", "coordinates": [13.470582962, 51.1602096558]}, "type": "Feature", "properties": {"name": "\"Gasthaus\" El Elle"}}, {"geometry": {"type": "Point", "coordinates": [11.1493206024, 47.8439064026]}, "type": "Feature", "properties": {"name": "Antalya"}}, {"geometry": {"type": "Point", "coordinates": [9.79778003693, 48.8240966797]}, "type": "Feature", "properties": {"name": "D\u00f6nerbude"}}, {"geometry": {"type": "Point", "coordinates": [13.3914737701, 52.5126876831]}, "type": "Feature", "properties": {"name": "D\u00f6ner In"}}, {"geometry": {"type": "Point", "coordinates": [8.01343631744, 52.351360321]}, "type": "Feature", "properties": {"name": "Rezan-Imbiss"}}, {"geometry": {"type": "Point", "coordinates": [9.92834663391, 49.7965202332]}, "type": "Feature", "properties": {"name": "Schlemmereck"}}, {"geometry": {"type": "Point", "coordinates": [8.68480205536, 50.1160240173]}, "type": "Feature", "properties": {"name": "D\u00f6ner H\u00fctte"}}, {"geometry": {"type": "Point", "coordinates": [13.4563341141, 52.4907264709]}, "type": "Feature", "properties": {"name": "Palast Grill Imbiss"}}, {"geometry": {"type": "Point", "coordinates": [10.2162494659, 50.3221054077]}, "type": "Feature", "properties": {"name": "Antalya"}}, {"geometry": {"type": "Point", "coordinates": [12.1667289734, 47.5828094482]}, "type": "Feature", "properties": {"name": "River House"}}, {"geometry": {"type": "Point", "coordinates": [8.5002374649, 48.4685173035]}, "type": "Feature", "properties": {"name": "Schwaarzes Meer D\u00f6ner Kebap"}}, {"geometry": {"type": "Point", "coordinates": [9.73153018951, 52.3756027222]}, "type": "Feature", "properties": {"name": "Delikato"}}, {"geometry": {"type": "Point", "coordinates": [9.3418712616, 48.6261634827]}, "type": "Feature", "properties": {"name": "D\u00f6ner im NC"}}, {"geometry": {"type": "Point", "coordinates": [9.64981079102, 54.31275177]}, "type": "Feature", "properties": {"name": "Ph\u00f6nizier-Bistro"}}, {"geometry": {"type": "Point", "coordinates": [7.58787822723, 51.4975585938]}, "type": "Feature", "properties": {"name": "Alanya Grill"}}, {"geometry": {"type": "Point", "coordinates": [7.5330657959, 51.4889640808]}, "type": "Feature", "properties": {"name": "Ali Baba 2"}}, {"geometry": {"type": "Point", "coordinates": [7.54153776169, 51.522808075]}, "type": "Feature", "properties": {"name": "D\u00f6nerland"}}, {"geometry": {"type": "Point", "coordinates": [7.0138669014, 51.1931877136]}, "type": "Feature", "properties": {"name": "Kebap Haus"}},